lat,lon,adr,name,start_t,end_t,mood_date,mood
40.8312592,14.244409,"Via Chiatamone, 61/62 80121 Napoli NA Italia","University of Naples ""L'Orientale""",2019-04-01T13:20:49.424Z,2019-04-01T17:19:17.251Z,2019-04-01,bad
40.8432091,14.2556386,80133 Napoli NA Italia,Università,2019-04-01T17:50:25.499Z,2019-04-01T17:58:14.250Z,2019-04-01,bad
40.8508397,14.2598529,Via Duomo Napoli NA Italia,Via Duomo,2019-04-03T07:59:13.106Z,2019-04-03T11:08:58Z,2019-04-03,good
40.8489354,14.2292272,"Via Tino di Camaino, 9 80128 Napoli NA Italia",Dott.ssa Barbara Marrone - Psicologa Napoli,2019-04-03T16:32:49.733Z,2019-04-03T16:52:14.901Z,2019-04-03,good
40.8455655,14.2323448,"Via Michele Kerbaker, 85 80129 Napoli NA Italia",Cinema Plaza,2019-04-03T17:07:36.413Z,2019-04-03T19:23:02.035Z,2019-04-03,good
40.8514185,14.2258198,"Via S. Giacomo dei Capri, 23 80128 Napoli NA Italia",Garage Italia,2019-04-03T19:35:27.632Z,2019-04-03T19:41:34.511Z,2019-04-03,good
40.84941,14.250412,"Via Port'Alba, 17 80135 Napoli NA Italia",Bar Port'Alba Di Roberto Gioacchino,2019-04-05T21:37:28.516Z,2019-04-05T21:44:40.684Z,2019-04-05,good
40.848699,14.2545405,"P.za S. Domenico Maggiore, 9 80134 Napoli NA Italia",jamón,2019-04-05T21:46:01.756Z,2019-04-05T22:00:31.565Z,2019-04-05,good
40.8448404,14.2565632,"Via Giannantonio Summonte, 1/19 80138 Napoli NA Italy",Cucina Pop,2019-04-05T22:08:37.390Z,2019-04-05T22:50:56.175Z,2019-04-05,good
40.8480053,14.2528378,"Via S. Sebastiano, 36 80134 Napoli NA Italia",Fahrenheit winebar,2019-04-05T22:57:46.471Z,2019-04-05T23:21:08.920Z,2019-04-05,good
40.846386,14.2549933,"Via S. Giovanni Maggiore Pignatelli, 17 80134 Napoli NA Italia",Vida,2019-04-05T23:27:13.095Z,2019-04-06T00:19:53.349Z,2019-04-05,good
40.8352321,14.2419046,"Via S. Caterina, 76 80121 Napoli NA Italia",Chiesa di Santa Caterina a Chiaia,2019-04-06T09:06:18.231Z,2019-04-06T11:30:12.754Z,2019-04-06,meh
40.8334139,14.1872247,"Cupa Vicinale Terracina, 119 80125 Napoli NA Italia","Cupa Vicinale Terracina, 119",2019-04-06T20:28:53.737Z,2019-04-06T23:03:11.753Z,2019-04-06,meh
40.8456967,14.2551578,"Vico Banchi Nuovi, 9 80134 Napoli NA Italia",University of Naples L'Orientale,2019-04-09T10:12:14.211Z,2019-04-09T11:56:36.895Z,2019-04-09,meh
40.848851,14.2563932,"Via San Biagio Dei Librai, 3 80138 Napoli NA Italia",Taralleria Napoletana,2019-04-09T11:58:37.956Z,2019-04-09T12:04:30.524Z,2019-04-09,meh
40.8629601,14.2712861,"Via Generale Francesco Pinto, 12 80141 Napoli NA Italia",MisterPlanet Arenaccia,2019-04-12T20:01:09.523Z,2019-04-12T21:29:19.017Z,2019-04-12,good
40.8243343,14.1885876,"Viale John Fitzgerald Kennedy, 54 80125 Napoli NA Italia",Mostra d'Oltremare,2019-04-13T14:19:37.428Z,2019-04-13T17:00:28.004Z,2019-04-13,good
40.8456076,14.2558934,Rampe S. Giovanni Maggiore 80134 Napoli NA Italia,St. John the Greater Basilica,2019-04-15T07:29:34.993Z,2019-04-15T09:59:24.771Z,2019-04-15,meh
40.8459443,14.2557766,"Via S. Giovanni Maggiore Pignatelli, 27 80134 Napoli NA Italia",Kestè,2019-04-15T10:01:27.097Z,2019-04-15T10:49:34.839Z,2019-04-15,meh
40.8616167,14.2836509,"Via Grimaldi, E/5 80143 Napoli NA Italia",Procura della Repubblica di Napoli,2019-04-19T10:52:15.206Z,2019-04-19T11:17:57Z,2019-04-19,good
40.8537372,14.2878379,80142 Napoli NA Italia,Naples Gianturco Station,2019-04-19T11:31:52.697Z,2019-04-19T11:39:22.613Z,2019-04-19,good
40.8553252,14.2550321,80137 Napoli NA Italia,Naples Piazza Cavour Station,2019-04-19T12:01:09.899Z,2019-04-19T12:08:36.583Z,2019-04-19,good
40.9398606,14.3728586,80011 Acerra NA Italia,Acerra,2019-04-22T07:03:38Z,2019-04-22T07:30:02.694Z,2019-04-22,rad
40.7023642,14.7074296,"Via Andrea Sorrentino, 19 84013 Cava de' Tirreni SA Italia",Italian Post Office Post,2019-04-22T08:41:46.351Z,2019-04-22T08:49:36.492Z,2019-04-22,rad
40.7111679,14.712067,Piazza Marco Galdi 84013 Cava de' Tirreni SA Italia,Parrocchia S. Nicola Di Bari,2019-04-22T08:56:31Z,2019-04-22T16:50:08.528Z,2019-04-22,rad
40.8474843,14.2455554,"Piazza Montesanto, 25 80135 Napoli NA Italia",Istituto Paritario Bianchi dei Padri Barnabiti,2019-04-23T07:28:23Z,2019-04-23T07:44:10.893Z,2019-04-23,rad
40.8043318,14.1736604,"Via Coroglio, 57/104 80124 Napoli NA Italy",Città della Scienza,2019-04-23T08:15:27.992Z,2019-04-23T08:45:26.290Z,2019-04-23,rad
40.8432215,14.2489647,"Via Armando Diaz, 180/B, I-80134 Napoli, Italia","Via Armando Diaz, 180/B",2019-04-23T09:22:40.479Z,2019-04-23T14:24:50.866Z,2019-04-23,rad
40.8410548,14.2517785,"Via Incoronata, 14/16 80133 Napoli NA Italia",Sole 365,2019-04-23T14:29:38.424Z,2019-04-23T15:03:16.765Z,2019-04-23,rad
40.8414236,14.2510298,"Via Miguel Cervantes de Saavedra, 66 80133 Napoli NA Italia",'O Macarò,2019-04-25T10:48:33.873Z,2019-04-25T11:55:19Z,2019-04-25,meh
40.8616167,14.2836509,"Via Grimaldi, E/5 80143 Napoli NA Italia",Procura della Repubblica di Napoli,2019-04-26T08:07:56.476Z,2019-04-26T08:35:02.270Z,2019-04-26,meh
40.8616167,14.2836509,"Via Grimaldi, E/5 80143 Napoli NA Italia",Procura della Repubblica di Napoli,2019-04-26T09:07:41.775Z,2019-04-26T10:14:49.780Z,2019-04-26,meh
40.8453322,14.2604631,"Università degli Studi di Napoli Via Nuova Marina, 59 80133 Napoli NA Italia",Università Degli Studi di Napoli L'Orientale - Palazzo del Mediterraneo,2019-04-29T09:22:49.535Z,2019-04-29T09:57:51.373Z,2019-04-29,good
40.8616167,14.2836509,"Via Grimaldi, E/5 80143 Napoli NA Italia",Procura della Repubblica di Napoli,2019-04-29T10:49:52.754Z,2019-04-29T11:00:30.851Z,2019-04-29,good
50.7274387,-1.8358721,677 Christchurch Rd Boscombe Bournemouth BH7 6AA UK,MELLO MELLO BAR,2019-08-01T11:12:36.867Z,2019-08-01T11:39:30.159Z,2019-08-01,rad
50.7213532,-1.8656533,"Lansdowne Roundabout Boscombe, Bournemouth BH1 3JJ UK",Bournemouth and Poole College,2019-08-01T16:44:20.394Z,2019-08-01T18:00:46.668Z,2019-08-01,rad
50.7220676,-1.8736624,Cameo 60 Fir Vale Rd Bournemouth BH1 2JA UK,Jaggers Comedy Club,2019-08-01T18:09:59.625Z,2019-08-01T20:39:17.445Z,2019-08-01,rad
50.7247701,-1.8672498,Cranborne House St Paul's Pl Boscombe Bournemouth BH8 8HF UK,Cranborne House,2019-08-01T20:46:50.840Z,2019-08-01T22:06:54.154Z,2019-08-01,rad
50.7247701,-1.8672498,Cranborne House St Paul's Pl Boscombe Bournemouth BH8 8HF UK,Cranborne House,2019-08-02T16:14:32.910Z,2019-08-02T16:36:25Z,2019-08-02,rad
50.7257932,-1.861362,44 St Swithun's Rd Boscombe Bournemouth BH1 3RJ UK,Bournemouth Pizza Co,2019-08-02T16:41:26.132Z,2019-08-02T17:52:57.131Z,2019-08-02,rad
50.7352306,-1.8382791,"Boscombe, Bournemouth BH7 7BT UK",Vitality Stadium,2019-08-02T18:26:08.288Z,2019-08-02T18:32:24Z,2019-08-02,rad
50.7352306,-1.8382791,"Boscombe, Bournemouth BH7 7BT UK",Vitality Stadium,2019-08-02T19:06:56.760Z,2019-08-02T19:47:46.844Z,2019-08-02,rad
50.7247701,-1.8672498,Cranborne House St Paul's Pl Boscombe Bournemouth BH8 8HF UK,Cranborne House,2019-08-02T21:22:10.302Z,2019-08-02T21:38:28.300Z,2019-08-02,rad
50.7216299,-1.874567,27 Fir Vale Rd Bournemouth BH1 2JN UK,27 Fir Vale Rd,2019-08-02T21:47:24.691Z,2019-08-03T06:52:21.970Z,2019-08-02,rad
50.7213532,-1.8656533,"Lansdowne Roundabout Boscombe, Bournemouth BH1 3JJ UK",Bournemouth and Poole College,2019-08-03T07:00:12Z,2019-08-03T07:26:45.607Z,2019-08-03,rad
51.7534694,-1.2699454,Park End St Oxford OX1 1HS UK,Oxford Station,2019-08-03T09:38:46.305Z,2019-08-03T09:56:39.337Z,2019-08-03,rad
51.7548164,-1.2543668,Oxford OX1 2JD UK,University of Oxford,2019-08-03T10:29:46.370Z,2019-08-03T11:10:30.272Z,2019-08-03,rad
51.7548164,-1.2543668,Oxford OX1 2JD UK,University of Oxford,2019-08-03T11:25:46.847Z,2019-08-03T12:00:51.746Z,2019-08-03,rad
51.7537322,-1.2607355,36 George St Oxford OX1 2BJ UK,Thaikhun,2019-08-03T12:06:01.694Z,2019-08-03T12:21:54Z,2019-08-03,rad
51.7524144,-1.2564412,"108-109, Covered Market Oxford OX1 3DZ UK",Ben's Cookies,2019-08-03T12:22:42Z,2019-08-03T12:49:25Z,2019-08-03,rad
51.7548164,-1.2543668,Oxford OX1 2JD UK,University of Oxford,2019-08-03T12:56:08Z,2019-08-03T15:06:54.024Z,2019-08-03,rad
51.7537322,-1.2607355,36 George St Oxford OX1 2BJ UK,Thaikhun,2019-08-03T15:17:33Z,2019-08-03T16:45:34.033Z,2019-08-03,rad
51.7534694,-1.2699454,Park End St Oxford OX1 1HS UK,Oxford Station,2019-08-03T16:54:18.778Z,2019-08-03T17:17:01.860Z,2019-08-03,rad
50.7272168,-1.8641023,Holdenhurst Rd Boscombe Bournemouth BH8 8HX UK,Bournemouth,2019-08-03T19:14:29.873Z,2019-08-03T19:22:36.983Z,2019-08-03,rad
50.7247701,-1.8672498,Cranborne House St Paul's Pl Boscombe Bournemouth BH8 8HF UK,Cranborne House,2019-08-03T19:30:35.102Z,2019-08-03T23:29:30.772Z,2019-08-03,rad
50.7216299,-1.874567,27 Fir Vale Rd Bournemouth BH1 2JN UK,27 Fir Vale Rd,2019-08-03T23:38:07.990Z,2019-08-04T09:25:39.767Z,2019-08-03,rad
50.7247701,-1.8672498,Cranborne House St Paul's Pl Boscombe Bournemouth BH8 8HF UK,Cranborne House,2019-08-04T09:34:28.024Z,2019-08-04T14:10:40.633Z,2019-08-04,good
50.7216299,-1.874567,27 Fir Vale Rd Bournemouth BH1 2JN UK,27 Fir Vale Rd,2019-08-04T14:16:28.824Z,2019-08-04T17:11:19.093Z,2019-08-04,good
50.7199539,-1.8789367,Bournemouth BH1 1DU UK,Bournemouth Square (Stand Y),2019-08-04T17:49:53.128Z,2019-08-04T17:56:08.288Z,2019-08-04,good
50.7216299,-1.874567,27 Fir Vale Rd Bournemouth BH1 2JN UK,27 Fir Vale Rd,2019-08-04T17:59:15.278Z,2019-08-05T10:06:27.279Z,2019-08-04,good
50.7217802,-1.8758491,Richmond Gardens Shopping Centre Old Christchurch Rd Bournemouth BH1 1EP UK,Richmond Gardens Shopping Centre,2019-08-05T10:44:58Z,2019-08-05T10:57:08.829Z,2019-08-05,good
50.7205707,-1.8846295,22 The Triangle Bournemouth BH2 5RQ UK,Bournemouth Library,2019-08-05T11:08:40.376Z,2019-08-05T12:27:09.442Z,2019-08-05,good
50.7214684,-1.8819268,Bournemouth BH2 5RP UK,"Cenotaph, Bournemouth War Memorial",2019-08-05T12:29:20.851Z,2019-08-05T13:42:23.598Z,2019-08-05,good
50.7188292,-1.8795516,Bh2 Leisure Exeter Cres Bournemouth BH2 5DD UK,BH2 Leisure,2019-08-05T13:42:46.778Z,2019-08-05T15:51:45.219Z,2019-08-05,good
50.7216198,-1.8745717,27 Fir Vale Rd Bournemouth BH1 2JN UK,Bournemouth City College,2019-08-05T15:55:27.580Z,2019-08-05T16:00:59.939Z,2019-08-05,good
50.7272168,-1.8641023,Holdenhurst Rd Boscombe Bournemouth BH8 8HX UK,Bournemouth,2019-08-05T16:35:32.573Z,2019-08-05T19:56:03.776Z,2019-08-05,good
50.907232,-1.4133646,Central Station Bridge Blechynden Terrace Southampton SO15 1AL UK,Southampton Central,2019-08-05T20:27:04.604Z,2019-08-05T20:35:01.327Z,2019-08-05,good
51.1536621,-0.1820629,Horley Gatwick RH6 0NP UK,Gatwick Airport,2019-08-05T22:50:42.356Z,2019-08-06T18:41:01.869Z,2019-08-05,good
51.1536621,-0.1820629,Horley Gatwick RH6 0NP UK,Gatwick Airport,2019-08-06T18:42:09.212Z,2019-08-06T18:51:17.089Z,2019-08-06,good
40.8847493,14.289243,Viale F. Ruffo di Calabria 80144 Napoli NA Italia,Naples International Airport,2019-08-06T21:46:29.035Z,2019-08-06T21:51:37.038Z,2019-08-06,good
40.8432215,14.2489647,"Via Armando Diaz, 180/B, I-80134 Napoli, Italia","Via Armando Diaz, 180/B",2019-08-06T22:44:13.169Z,2019-08-07T16:06:43.479Z,2019-08-06,good
40.8410548,14.2517785,"Via Incoronata, 14/16 80133 Napoli NA Italia",Sole 365,2019-08-07T16:08:44.958Z,2019-08-07T16:32:04.558Z,2019-08-07,rad
40.8432215,14.2489647,"Via Armando Diaz, 180/B, I-80134 Napoli, Italia","Via Armando Diaz, 180/B",2019-08-07T16:36:10.247Z,2019-08-07T19:30:15.792Z,2019-08-07,rad
40.8470936,14.2517471,"Piazza del Gesù Nuovo, 2 80134 Napoli NA Italia",Gesù Nuovo Square,2019-08-07T19:35:33.958Z,2019-08-07T19:51:38.785Z,2019-08-07,rad
40.8487574,14.2547426,"P.za S. Domenico Maggiore, 11 80134 Napoli NA Italia",San Domenico Café,2019-08-07T19:53:44.654Z,2019-08-08T00:48:24.807Z,2019-08-07,rad
40.8470936,14.2517471,"Piazza del Gesù Nuovo, 2 80134 Napoli NA Italia",Gesù Nuovo Square,2019-08-08T00:50:23.452Z,2019-08-08T00:55:42.838Z,2019-08-08,good
40.8432215,14.2489647,"Via Armando Diaz, 180/B, I-80134 Napoli, Italia","Via Armando Diaz, 180/B",2019-08-08T01:02:38.699Z,2019-08-09T10:38:13Z,2019-08-08,good
40.84373,14.2512253,"Piazza Matteotti, 2 80133 Napoli NA Italia",Poste Italiane,2019-08-09T10:39:17Z,2019-08-09T10:45:58.153Z,2019-08-09,good
40.8432215,14.2489647,"Via Armando Diaz, 180/B, I-80134 Napoli, Italia","Via Armando Diaz, 180/B",2019-08-09T10:47:59.250Z,2019-08-10T17:50:27.011Z,2019-08-09,good
40.8438566,14.2580572,"Via Nuova Marina, 5 80133 Napoli NA Italia",Gran Gusto,2019-08-10T18:01:15.315Z,2019-08-10T18:15:34.774Z,2019-08-10,good
40.8432215,14.2489647,"Via Armando Diaz, 180/B, I-80134 Napoli, Italia","Via Armando Diaz, 180/B",2019-08-10T18:25:46.181Z,2019-08-11T20:25:18.208Z,2019-08-10,good
40.8512676,14.2665869,"Via S. Candida, 4 80139 Napoli NA Italia",San Pietro ad Aram,2019-08-11T20:30:01.459Z,2019-08-11T20:38:11.697Z,2019-08-11,rad
40.7886779,14.0631441,"Via Miliscola, 57 80070 Monte di Procida NA Italia",Tibidabo Eventi Miliscola,2019-08-11T21:30:02.674Z,2019-08-11T23:22:07.150Z,2019-08-11,rad
40.8489606,14.232319,"Via Mario Fiore, 6 80129 Napoli NA Italia",A.O.R.N. Santobono-Pausilipon - Ospedale Santobono,2019-08-13T14:40:08.704Z,2019-08-13T15:02:50.658Z,2019-08-13,rad
40.968168,13.9861439,"Via del Mare, 37 81030 Castel Volturno CE Italia",Blue Sky Beach (By Lido Arcobaleno),2019-08-13T15:35:01.673Z,2019-08-13T18:07:06.770Z,2019-08-13,rad
40.9105952,14.2227447,"Via Pietro Nenni, 54 80018 Mugnano di Napoli NA Italia",Centro Commerciale Auchan Mugnano,2019-08-13T18:39:11Z,2019-08-13T19:26:26.420Z,2019-08-13,rad
40.894536,14.26953,"Via Cassano, 63 80020 Casavatore NA Italia",Ristorante Pizzeria e Girarrosto La Pagliarella,2019-08-13T19:51:07.926Z,2019-08-13T20:08:32.206Z,2019-08-13,rad
40.8987762,14.2495122,80144 Napoli NA Italia,Ghisler I - Parco Delle Palme isol. 6,2019-08-13T20:18:38.150Z,2019-08-13T20:33:33.478Z,2019-08-13,rad
40.9245507,14.2058512,"Via S. Giovanni a Campo, 9 80014 Giugliano in Campania NA Italia",Cantina Antica,2019-08-13T20:43:40.613Z,2019-08-13T23:02:58.530Z,2019-08-13,rad
40.9240896,14.1693254,"Via S. Francesco a Patria, 16 80014 Giugliano in Campania NA Italia",A La Belle Epoque Cafe 'Srl,2019-08-13T23:11:18.062Z,2019-08-13T23:51:14.392Z,2019-08-13,rad
40.8993645,14.2426109,Viale della Resistenza 80145 Napoli NA Italia,Park Ciro Esposito,2019-08-14T00:03:20.521Z,2019-08-14T00:13:33.310Z,2019-08-14,rad
40.968168,13.9861439,"Via del Mare, 37 81030 Castel Volturno CE Italia",Blue Sky Beach (By Lido Arcobaleno),2019-08-14T00:39:13.628Z,2019-08-14T10:25:07.965Z,2019-08-14,rad
40.968168,13.9861439,"Via del Mare, 37 81030 Castel Volturno CE Italia",Blue Sky Beach (By Lido Arcobaleno),2019-08-14T11:13:04Z,2019-08-14T16:45:47.480Z,2019-08-14,rad
40.9617413,14.0010918,Km 37.850 Via Domiziana 81030 Castel Volturno CE Italia,MD,2019-08-14T16:55:36.558Z,2019-08-14T17:31:22.322Z,2019-08-14,rad
40.9607761,14.0017789,81030 Ischitella Lido CE Italia,Tropical bar,2019-08-14T17:33:45.236Z,2019-08-14T17:47:34.421Z,2019-08-14,rad
40.968168,13.9861439,"Via del Mare, 37 81030 Castel Volturno CE Italia",Blue Sky Beach (By Lido Arcobaleno),2019-08-14T17:57:46.396Z,2019-08-15T09:43:20.577Z,2019-08-14,rad
40.968168,13.9861439,"Via del Mare, 37 81030 Castel Volturno CE Italia",Blue Sky Beach (By Lido Arcobaleno),2019-08-15T11:12:15.811Z,2019-08-16T11:19:09.836Z,2019-08-15,rad
40.968168,13.9861439,"Via del Mare, 37 81030 Castel Volturno CE Italia",Blue Sky Beach (By Lido Arcobaleno),2019-08-16T11:56:41.156Z,2019-08-16T17:18:35.180Z,2019-08-16,good
40.968168,13.9861439,"Via del Mare, 37 81030 Castel Volturno CE Italia",Blue Sky Beach (By Lido Arcobaleno),2019-08-16T19:44:14.557Z,2019-08-17T17:34:06.722Z,2019-08-16,good
40.9725,13.9863495,"Viale degli Oleandri, 12 81030 Castel Volturno CE Italia",Il Mondo senza glutine - Castelvolturno,2019-08-17T17:40:10.820Z,2019-08-17T17:50:16.483Z,2019-08-17,rad
40.968168,13.9861439,"Via del Mare, 37 81030 Castel Volturno CE Italia",Blue Sky Beach (By Lido Arcobaleno),2019-08-17T17:58:15.360Z,2019-08-18T17:27:28.206Z,2019-08-17,rad
40.9607761,14.0017789,81030 Ischitella Lido CE Italia,Tropical bar,2019-08-18T17:37:40.940Z,2019-08-18T17:45:54.522Z,2019-08-18,rad
40.9761854,13.9917393,"Via Domiziana, 967 81030 Castel Volturno CE Italia",Centro Commerciale Giolì,2019-08-18T17:52:05.569Z,2019-08-18T18:13:23.063Z,2019-08-18,rad
40.968168,13.9861439,"Via del Mare, 37 81030 Castel Volturno CE Italia",Blue Sky Beach (By Lido Arcobaleno),2019-08-18T18:26:16.660Z,2019-08-18T23:02:24.730Z,2019-08-18,rad
40.972503,13.986005,"Viale degli Oleandri, 5/7 81030 Castel Volturno CE Italy",Il Boss Dei Cornetti,2019-08-18T23:10:34.173Z,2019-08-18T23:16:38.805Z,2019-08-18,rad
40.968168,13.9861439,"Via del Mare, 37 81030 Castel Volturno CE Italia",Blue Sky Beach (By Lido Arcobaleno),2019-08-18T23:30:48.306Z,2019-08-19T14:25:08.923Z,2019-08-18,rad
40.8489606,14.232319,"Via Mario Fiore, 6 80129 Napoli NA Italia",A.O.R.N. Santobono-Pausilipon - Ospedale Santobono,2019-08-19T15:19:10.108Z,2019-08-19T15:30:18.447Z,2019-08-19,rad
40.8432215,14.2489647,"Via Armando Diaz, 180/B, I-80134 Napoli, Italia","Via Armando Diaz, 180/B",2019-08-19T15:58:14.052Z,2019-08-20T16:13:03.928Z,2019-08-19,rad
40.8423139,14.2497858,"Via Roberto Bracco, 4/8 80100 Napoli NA Italia",CONAD,2019-08-20T16:17:01.733Z,2019-08-20T16:34:27.485Z,2019-08-20,good
40.8358256,14.2485831,Piazza del Plebiscito 80132 Napoli NA Italia,Piazza del Plebiscito,2019-08-24T14:15:50.956Z,2019-08-24T14:32:10.103Z,2019-08-24,rad
40.8432215,14.2489647,"Via Armando Diaz, 180/B, I-80134 Napoli, Italia","Via Armando Diaz, 180/B",2019-08-24T14:41:18.506Z,2019-08-24T15:18:33.781Z,2019-08-24,rad
40.6981178,14.7143559,"Via Raffaele Ragone, 39 84013 Cava de' Tirreni SA Italia",S.I.S. School Of International Studies S.R.L.,2019-08-24T15:56:15Z,2019-08-24T16:20:44.750Z,2019-08-24,rad
40.559015,15.3068314,Via Fontanella 84029 Sicignano degli Alburni SA Italia,Il posto giusto,2019-08-24T16:53:43.104Z,2019-08-24T19:22:16.053Z,2019-08-24,rad
40.8423139,14.2497858,"Via Roberto Bracco, 4/8 80100 Napoli NA Italia",CONAD,2019-08-25T11:31:55.528Z,2019-08-25T11:40:33.533Z,2019-08-25,rad
40.8410548,14.2517785,"Via Incoronata, 14/16 80133 Napoli NA Italia",Sole 365,2019-08-25T11:42:47.619Z,2019-08-25T12:05:00.107Z,2019-08-25,rad
40.8489606,14.232319,"Via Mario Fiore, 6 80129 Napoli NA Italia",A.O.R.N. Santobono-Pausilipon - Ospedale Santobono,2019-08-26T09:29:15.788Z,2019-08-26T10:07:25.088Z,2019-08-26,rad
40.8432872,14.2239322,80127 Napoli NA Italia,Via Cilea,2019-08-26T10:25:35.386Z,2019-08-26T10:59:27.807Z,2019-08-26,rad
40.7993019,14.1805091,Viale Virgilio 80123 Napoli NA Italia,Parco Virgiliano,2019-08-26T11:34:29Z,2019-08-26T11:47:04.407Z,2019-08-26,rad
40.7923894,14.1874345,Discesa Gaiola 80123 Napoli NA Italia,Marine Protected Area Gaiola Underwater Park,2019-08-26T12:05:15.072Z,2019-08-26T13:14:34Z,2019-08-26,rad
40.7923894,14.1874345,Discesa Gaiola 80123 Napoli NA Italia,Marine Protected Area Gaiola Underwater Park,2019-08-26T15:42:44.204Z,2019-08-26T16:58:03.368Z,2019-08-26,rad
40.8013554,14.1895148,80123 Napoli NA Italia,Discesa Coroglio - Marechiaro,2019-08-26T17:25:35.883Z,2019-08-26T18:03:27Z,2019-08-26,rad
40.8524329,14.2504504,"Via Ettore Bellini, 1 80135 Napoli NA Italia",Galleria Principe di Napoli,2019-08-27T15:31:53.893Z,2019-08-27T15:39:36.571Z,2019-08-27,rad
40.8454927,14.2507609,"Via Sant'Anna dei Lombardi, 34 80134 Napoli NA Italia",BAGAGLI Eddybags,2019-08-27T15:51:15.529Z,2019-08-27T16:03:54.878Z,2019-08-27,rad
40.8433892,14.2522109,Piazza Matteotti 80133 Napoli NA Italia,OVS,2019-08-27T16:09:05.508Z,2019-08-27T16:14:32.449Z,2019-08-27,rad
40.8397066,14.2481106,"Via Trinità degli Spagnoli, 5 80132 Napoli NA Italia",Giranapoli,2019-08-27T16:21:28.286Z,2019-08-27T16:35:47.872Z,2019-08-27,rad
40.8424948,14.2489206,80133 Napoli NA Italia,Toledo,2019-08-28T10:57:38Z,2019-08-28T11:06:04.231Z,2019-08-28,good
40.8365335,14.2481451,"Piazza del Plebiscito, 22 80132 Napoli NA Italia",Territorial Office of the Government of Naples,2019-08-28T16:58:52.196Z,2019-08-28T17:08:56.808Z,2019-08-28,good
41.129669,14.782822,"Via Giovan Battista Perasso, 2 82100 Benevento BN Italia",Bar Maxim's,2019-08-28T18:49:43.261Z,2019-08-28T19:10:10.725Z,2019-08-28,good
41.1325694,14.7791458,Via Traiano 82100 Benevento BN Italia,Arch of Trajan,2019-08-28T19:12:11.908Z,2019-08-28T19:37:01.667Z,2019-08-28,good
41.1298259,14.7824491,Contrada Pontecorvo 82100 Benevento BN Italia,BAR MI PIACE,2019-08-28T19:52:38.651Z,2019-08-28T20:46:26.208Z,2019-08-28,good
41.1297057,14.7829689,"Via Giovan Battista Perasso, 32/34 Via Ennio Goduti, 4 82100 Benevento BN Italia",Ottica Russo,2019-08-28T21:07:29.251Z,2019-08-28T22:33:22.329Z,2019-08-28,good
41.129689,14.782899,6/8/10/12 Via Giovan Battista Perasso 82100 Benevento BN Italia,Young Pizza,2019-08-28T22:43:38.786Z,2019-08-28T22:51:17.200Z,2019-08-28,good
41.1273132,14.7860878,Viale Atlantici 82100 Benevento BN Italia,Babbi Cantina Caffè,2019-08-28T22:54:02.019Z,2019-08-28T23:01:05.606Z,2019-08-28,good
40.8416118,14.2489927,"Via Ponte di Tappia, 92 80133 Napoli NA Italia",Mandara,2019-08-30T11:20:31.476Z,2019-08-30T11:25:39.475Z,2019-08-30,good
40.8502217,14.2231834,"Via Simone Martini, 47 80128 Napoli NA Italia",Bar Satira 3 di Visconti Raffaele,2019-08-31T20:12:52.645Z,2019-08-31T20:20:16.191Z,2019-08-31,rad
40.849502,14.232609,"Via Guglielmo Sagrera, 11/19 80129 Napoli NA Italia",Viktoria Platz,2019-08-31T20:26:19.301Z,2019-08-31T22:32:47.566Z,2019-08-31,rad
40.8502217,14.2231834,"Via Simone Martini, 47 80128 Napoli NA Italia",Bar Satira 3 di Visconti Raffaele,2019-08-31T22:38:51.061Z,2019-08-31T22:54:10.317Z,2019-08-31,rad
40.845574,14.254644,"Via Santa Chiara, 39/a 80134 Napoli NA Italia",BEER BAR,2019-08-31T23:12:29.412Z,2019-09-01T01:00:49.435Z,2019-08-31,rad
40.8500487,14.2520346,Piazza Bellini 80138 Napoli NA Italia,Piazza Vincenzo Bellini,2019-12-01T00:03:30.711Z,2019-12-01T01:09:29.746Z,2019-12-01,rad
40.8506051,14.2308325,80128 Napoli NA Italia,Medaglie d'Oro,2019-12-01T11:44:00.260Z,2019-12-01T11:59:47.232Z,2019-12-01,rad
40.8489606,14.232319,"Via Mario Fiore, 6 80129 Napoli NA Italia",A.O.R.N. Santobono-Pausilipon - Ospedale Santobono,2019-12-01T11:59:47.232Z,2019-12-01T12:23:25.156Z,2019-12-01,rad
40.92569,14.19756,"Via Aniello Palumbo, 179 80014 Giugliano in Campania NA Italia","Via Aniello Palumbo, 179",2019-12-01T13:08:18.992Z,2019-12-01T18:30:23.627Z,2019-12-01,rad
40.8453322,14.2604631,"Università degli Studi di Napoli Via Nuova Marina, 59 80133 Napoli NA Italia",Università Degli Studi di Napoli L'Orientale - Palazzo del Mediterraneo,2019-12-04T11:27:30.589Z,2019-12-04T13:23:05.494Z,2019-12-04,good
40.8432215,14.2489647,"Via Armando Diaz, 180/B, I-80134 Napoli, Italia","Via Armando Diaz, 180/B",2019-12-04T13:36:46.372Z,2019-12-04T16:22:27.808Z,2019-12-04,good
40.8453322,14.2604631,"Università degli Studi di Napoli Via Nuova Marina, 59 80133 Napoli NA Italia",Università Degli Studi di Napoli L'Orientale - Palazzo del Mediterraneo,2019-12-05T15:30:35.711Z,2019-12-05T17:00:18Z,2019-12-05,good
40.8438566,14.2580572,"Via Nuova Marina, 5 80133 Napoli NA Italia",Gran Gusto,2019-12-05T17:00:18Z,2019-12-05T17:08:30.034Z,2019-12-05,good
40.8358315,14.243766,"Via Chiaia, 159 80121 Napoli NA Italia",Chiaja Cafè,2019-12-05T17:39:08.006Z,2019-12-05T18:34:02.095Z,2019-12-05,good
40.8312592,14.244409,"Via Chiatamone, 61/62 80121 Napoli NA Italia","University of Naples ""L'Orientale""",2019-12-06T13:34:44.406Z,2019-12-06T13:45:19.301Z,2019-12-06,good
40.8453322,14.2604631,"Università degli Studi di Napoli Via Nuova Marina, 59 80133 Napoli NA Italia",Università Degli Studi di Napoli L'Orientale - Palazzo del Mediterraneo,2019-12-06T13:53:17.824Z,2019-12-06T15:20:56.036Z,2019-12-06,good
40.8993874,14.3162979,"Via Ponza, 5 80026 San Salvatore, Casoria NA Italia",Higuana Calcio,2019-12-06T19:48:28.283Z,2019-12-06T21:38:01.809Z,2019-12-06,good
40.8498509,14.2578597,"Via S. Gregorio Armeno, 29 80138 Napoli NA Italia",San Gregorio Armeno,2019-12-07T16:01:53.379Z,2019-12-07T16:58:07.084Z,2019-12-07,meh
40.849998,14.260013,"Via San Biagio Dei Librai, 65 80138 Napoli NA Italia",Fanta Universe,2019-12-07T17:00:07.748Z,2019-12-07T17:15:27.667Z,2019-12-07,meh
40.8510695,14.2569047,"Piazza San Gaetano, 68 80138 Napoli NA Italia",Napoli Sotterranea Percorso Ufficiale e Autorizzato,2019-12-07T17:32:57.662Z,2019-12-07T18:05:03.291Z,2019-12-07,meh
40.846325,14.257881,"Via Leopoldo Rodinò, 22 80133 Napoli NA Italia",Department of Political Science,2019-12-09T13:57:47.515Z,2019-12-09T16:23:26.769Z,2019-12-09,meh
40.8468876,14.2508072,"Piazza Sette Settembre 20/21 Via Domenico Capitelli, 27 80134 Napoli NA Italia",Tacos,2019-12-11T12:49:09.218Z,2019-12-11T13:44:04.309Z,2019-12-11,good
40.8312592,14.244409,"Via Chiatamone, 61/62 80121 Napoli NA Italia","University of Naples ""L'Orientale""",2019-12-12T11:32:20.606Z,2019-12-12T13:17:04.895Z,2019-12-12,good
40.8507734,14.2228564,"Via Simone Martini, 81 80128 Napoli NA Italia",Pizzeria - Rosticceria D'Auria,2019-12-12T18:09:06.755Z,2019-12-12T18:30:03.278Z,2019-12-12,good
40.8195296,14.0611232,Viale Carlo Vanvitelli 80070 Bacoli NA Italia,Madcap Public House,2019-12-12T19:13:34.598Z,2019-12-12T19:47:55.646Z,2019-12-12,good
40.7944469,14.0659182,"Via Panoramica, 183 80070 Monte di Procida NA Italia",Family Nest,2019-12-12T19:55:49Z,2019-12-12T21:17:48.638Z,2019-12-12,good
40.8312592,14.244409,"Via Chiatamone, 61/62 80121 Napoli NA Italia","University of Naples ""L'Orientale""",2019-12-13T09:41:30.835Z,2019-12-13T11:32:55.978Z,2019-12-13,good
40.8453322,14.2604631,"Università degli Studi di Napoli Via Nuova Marina, 59 80133 Napoli NA Italia",Università Degli Studi di Napoli L'Orientale - Palazzo del Mediterraneo,2019-12-13T14:14:20.711Z,2019-12-13T15:01:41.743Z,2019-12-13,good
40.8489606,14.232319,"Via Mario Fiore, 6 80129 Napoli NA Italia",A.O.R.N. Santobono-Pausilipon - Ospedale Santobono,2019-12-14T16:25:11.436Z,2019-12-14T22:32:43.398Z,2019-12-14,good
40.8892535,14.3281215,"Via Lufrano, SNC 80026 Casoria NA Italia",Paintball Napoli Extreme,2019-12-15T15:00:49.297Z,2019-12-15T16:25:19.824Z,2019-12-15,meh
40.8489606,14.232319,"Via Mario Fiore, 6 80129 Napoli NA Italia",A.O.R.N. Santobono-Pausilipon - Ospedale Santobono,2019-12-15T17:42:20.920Z,2019-12-15T21:08:12.679Z,2019-12-15,meh
40.8534704,14.251242,80137 Napoli NA Italia,Museo,2019-12-16T14:46:19.183Z,2019-12-16T14:59:44.115Z,2019-12-16,good
40.8489606,14.232319,"Via Mario Fiore, 6 80129 Napoli NA Italia",A.O.R.N. Santobono-Pausilipon - Ospedale Santobono,2019-12-16T15:19:44.760Z,2019-12-16T19:19:06.778Z,2019-12-16,good
40.8534704,14.251242,80137 Napoli NA Italia,Museo,2019-12-17T16:51:36.618Z,2019-12-17T17:03:44.806Z,2019-12-17,good
40.8489606,14.232319,"Via Mario Fiore, 6 80129 Napoli NA Italia",A.O.R.N. Santobono-Pausilipon - Ospedale Santobono,2019-12-17T17:26:00.834Z,2019-12-17T21:12:54Z,2019-12-17,good
40.8520049,14.2709413,80142 Napoli NA Italia,Piazza Garibaldi,2019-12-18T17:58:21.413Z,2019-12-18T18:14:33.668Z,2019-12-18,good
40.8312592,14.244409,"Via Chiatamone, 61/62 80121 Napoli NA Italia","University of Naples ""L'Orientale""",2019-12-19T09:51:32.417Z,2019-12-19T13:13:09.284Z,2019-12-19,good
40.8416118,14.2489927,"Via Ponte di Tappia, 92 80133 Napoli NA Italia",Mandara,2019-12-19T13:28:44.605Z,2019-12-19T14:00:52.547Z,2019-12-19,good
40.8312592,14.244409,"Via Chiatamone, 61/62 80121 Napoli NA Italia","University of Naples ""L'Orientale""",2019-12-20T09:44:11.722Z,2019-12-20T11:29:00.884Z,2019-12-20,good
40.8453322,14.2604631,"Università degli Studi di Napoli Via Nuova Marina, 59 80133 Napoli NA Italia",Università Degli Studi di Napoli L'Orientale - Palazzo del Mediterraneo,2019-12-20T13:54:03.211Z,2019-12-20T15:15:24.305Z,2019-12-20,good
40.8504043,14.2324572,80129 Napoli NA Italia,Escobar Cafè,2019-12-21T20:24:58.244Z,2019-12-21T21:01:55.261Z,2019-12-21,rad
40.8980457,14.1697713,"Via S. Rocco, 238 80016 Marano di Napoli NA Italia",Bocadito soul food,2019-12-21T21:46:28Z,2019-12-21T23:46:41.772Z,2019-12-21,rad
40.9303351,14.1375955,"Via S. Francesco a Patria, 214 80014 Giugliano in Campania NA Italia",Crystal Cafe,2019-12-22T00:12:47.900Z,2019-12-22T01:25:59.165Z,2019-12-22,rad
40.92569,14.19756,"Via Aniello Palumbo, 179 80014 Giugliano in Campania NA Italia","Via Aniello Palumbo, 179",2019-12-22T12:40:43.308Z,2019-12-22T18:35:48.489Z,2019-12-22,rad
40.8424948,14.2489206,80133 Napoli NA Italia,Toledo,2019-12-24T16:28:17Z,2019-12-24T16:35:37.390Z,2019-12-24,good
40.849502,14.232609,"Via Guglielmo Sagrera, 11/19 80129 Napoli NA Italia",Viktoria Platz,2019-12-24T17:04:22.531Z,2019-12-24T17:26:54.469Z,2019-12-24,good
40.8504043,14.2324572,80129 Napoli NA Italia,Escobar Cafè,2019-12-24T17:26:54.469Z,2019-12-24T18:29:50.928Z,2019-12-24,good
40.8444859,14.2489249,"Piazza Carità, 14 80134 Napoli NA Italia",Ceraldi Caffè,2019-12-26T11:12:51.181Z,2019-12-26T12:21:37.644Z,2019-12-26,good
40.849502,14.232609,"Via Guglielmo Sagrera, 11/19 80129 Napoli NA Italia",Viktoria Platz,2019-12-27T17:36:30.720Z,2019-12-27T18:08:19.921Z,2019-12-27,rad
40.84411,14.227789,"Via Luca Giordano, 59 80127 Napoli NA Italia",SEPHORA NAPOLI VOMERO,2019-12-27T18:20:32.507Z,2019-12-27T18:36:38.184Z,2019-12-27,rad
40.8436302,14.2300341,"Via Alessandro Scarlatti, 129 80129 Napoli NA Italia",ZARA,2019-12-27T18:39:57.297Z,2019-12-27T19:13:40.964Z,2019-12-27,rad
40.8432235,14.2294126,"Via Giovanni Merliani, 38 80127 Napoli NA Italia",McDonald's,2019-12-27T19:18:04.690Z,2019-12-27T19:57:31.548Z,2019-12-27,rad
40.849502,14.232609,"Via Guglielmo Sagrera, 11/19 80129 Napoli NA Italia",Viktoria Platz,2019-12-27T20:17:59.530Z,2019-12-27T21:04:44.400Z,2019-12-27,rad
40.8499804,14.2310782,"Via Mario Fiore, 34 80129 Napoli NA Italia","Via Mario Fiore, 34",2019-12-30T11:12:44.078Z,2019-12-30T11:21:08.545Z,2019-12-30,rad
40.8470377,14.2272164,"Via Luca Giordano, 113 80129 Napoli NA Italia",Flor dò Cafè,2019-12-30T11:25:08.495Z,2019-12-30T11:32:11.195Z,2019-12-30,rad
40.8477388,14.2281034,"P.za degli Artisti, 1 Napoli NA Italia","P.za degli Artisti, 1",2019-12-30T11:41:20Z,2019-12-30T12:17:29.814Z,2019-12-30,rad
40.84411,14.227789,"Via Luca Giordano, 59 80127 Napoli NA Italia",SEPHORA NAPOLI VOMERO,2019-12-30T12:25:59.280Z,2019-12-30T12:54:11.703Z,2019-12-30,rad
40.8470377,14.2272164,"Via Luca Giordano, 113 80129 Napoli NA Italia",Flor dò Cafè,2019-12-30T12:58:14.445Z,2019-12-30T13:14:44.246Z,2019-12-30,rad
40.8502217,14.2231834,"Via Simone Martini, 47 80128 Napoli NA Italia",Bar Satira 3 di Visconti Raffaele,2019-12-30T13:23:16.399Z,2019-12-30T19:30:25.710Z,2019-12-30,rad
40.8499804,14.2310782,"Via Mario Fiore, 34 80129 Napoli NA Italia","Via Mario Fiore, 34",2019-12-30T19:37:43.119Z,2019-12-30T19:47:47.507Z,2019-12-30,rad
40.8469218,14.2503528,"Vico Quercia, 10 80134 Napoli NA Italia",OAK Napoli Wine And Craft Beer,2019-12-31T14:51:53.666Z,2019-12-31T15:44:48.948Z,2019-12-31,rad
40.853782,14.2519871,80137 Napoli NA Italia,Museo,2019-12-31T15:56:25.197Z,2019-12-31T16:16:26.504Z,2019-12-31,rad
40.8529221,14.2723433,P.za Giuseppe Garibaldi 80142 Napoli NA Italia,Neaples Centrale,2019-12-31T16:43:49.160Z,2019-12-31T17:17:39Z,2019-12-31,rad
40.8502217,14.2231834,"Via Simone Martini, 47 80128 Napoli NA Italia",Bar Satira 3 di Visconti Raffaele,2019-12-31T19:16:13.309Z,2020-01-01T03:25:02.371Z,2019-12-31,rad
40.8694544,14.216172,"Via Sergio Pansini, 5 80131 Napoli NA Italia",Federico II University Hospital,2019-02-09T15:14:19.535Z,2019-02-09T18:03:45.342Z,2019-02-09,good
40.8746017,14.3465554,"Via Caduti di Nassiria, 10 80040 Volla NA Italia",Bar Picasso,2019-02-09T18:24:10.065Z,2019-02-10T17:28:59.355Z,2019-02-09,good
40.8456967,14.2551578,"Vico Banchi Nuovi, 9 80134 Napoli NA Italia",University of Naples L'Orientale,2019-02-11T08:34:18.547Z,2019-02-11T11:30:54.632Z,2019-02-11,meh
40.8312592,14.244409,"Via Chiatamone, 61/62 80121 Napoli NA Italia","University of Naples ""L'Orientale""",2019-02-12T09:04:38.048Z,2019-02-12T09:37:11.107Z,2019-02-12,meh
40.8312592,14.244409,"Via Chiatamone, 61/62 80121 Napoli NA Italia","University of Naples ""L'Orientale""",2019-02-13T09:27:01.318Z,2019-02-13T10:30:48.604Z,2019-02-13,meh
40.8432215,14.2489647,"Via Armando Diaz, 180/B, I-80134 Napoli, Italia","Via Armando Diaz, 180/B",2019-02-13T10:55:44.249Z,2019-02-16T21:36:36.012Z,2019-02-13,meh
40.8504621,14.2461381,"Salita Pontecorvo, 46 80135 Napoli NA Italia",Scugnizzo Liberato,2019-02-16T22:03:04.195Z,2019-02-17T00:14:32.173Z,2019-02-16,good
40.8432215,14.2489647,"Via Armando Diaz, 180/B, I-80134 Napoli, Italia","Via Armando Diaz, 180/B",2019-02-17T00:36:48Z,2019-02-19T08:44:13Z,2019-02-17,meh
40.8312592,14.244409,"Via Chiatamone, 61/62 80121 Napoli NA Italia","University of Naples ""L'Orientale""",2019-02-19T08:55:12.079Z,2019-02-19T09:54:08.145Z,2019-02-19,rad
40.8414236,14.2510298,"Via Miguel Cervantes de Saavedra, 66 80133 Napoli NA Italia",'O Macarò,2019-02-21T13:21:47.702Z,2019-02-21T14:51:08.486Z,2019-02-21,meh
40.8481795,14.2544539,"Via Benedetto Croce, 30/31 80134 Napoli NA Italy",Leopoldo Cafebar,2019-02-22T08:59:17.442Z,2019-02-22T11:27:19Z,2019-02-22,good
40.9448566,14.2618454,"Traversa II Giuseppe Mazzini, 8 80027 Frattamaggiore NA Italia",Sound Music Club,2019-02-22T21:11:30Z,2019-02-23T00:13:19.403Z,2019-02-22,good
40.849502,14.232609,"Via Guglielmo Sagrera, 11/19 80129 Napoli NA Italia",Viktoria Platz,2019-02-24T09:04:10.927Z,2019-02-24T09:14:32.287Z,2019-02-24,good
40.8995061,14.2587853,"Via Comunale Limitone d'Arzano, 43 80144 Napoli NA Italia",Associazione Sportiva Fondazione Andrea Capasso,2019-02-24T10:14:28.148Z,2019-02-24T11:56:51.362Z,2019-02-24,good
40.8929317,14.2398455,80145 Napoli NA Italia,Piscinola,2019-02-24T12:11:11Z,2019-02-24T12:22:18.944Z,2019-02-24,good
40.8529221,14.2723433,P.za Giuseppe Garibaldi 80142 Napoli NA Italia,Napoli Centrale,2019-02-27T18:42:22.566Z,2019-02-27T18:55:01.629Z,2019-02-27,good
40.823435,14.183897,"Viale John Fitzgerald Kennedy, 12 80125 Napoli NA Italia",Bowling Oltremare,2019-01-05T22:42:18.018Z,2019-01-05T23:31:14.788Z,2019-01-05,meh
40.8483456,14.2342762,"Viale Michelangelo, 57 d 80129 Napoli NA Italia",Il Ciottolo,2019-01-06T00:32:52Z,2019-01-06T01:29:29.680Z,2019-01-06,bad
40.8462711,14.2641405,"Via Nuova Marina, 120 80133 Napoli NA Italia",Palazzo Salgar,2019-01-07T22:11:06.580Z,2019-01-07T22:23:58Z,2019-01-07,bad
40.8470936,14.2517471,"Piazza del Gesù Nuovo, 2 80134 Napoli NA Italia",Gesù Nuovo Square,2019-01-09T11:00:26.838Z,2019-01-09T11:37:47.157Z,2019-01-09,good
40.8503936,14.2553743,"Via dei Tribunali, 32 80138 Napoli NA Italia",Gino e Toto Sorbillo,2019-01-09T11:43:58.144Z,2019-01-09T13:31:52.412Z,2019-01-09,good
40.8474843,14.2455554,"Piazza Montesanto, 25 80135 Napoli NA Italia",Istituto Paritario Bianchi dei Padri Barnabiti,2019-01-09T13:45:29.863Z,2019-01-09T14:02:20.919Z,2019-01-09,good
40.8435511,14.228525,"Via Alessandro Scarlatti, 183 80127 Napoli NA Italia",Caffe' Roma Scarlatti Srl,2019-01-09T14:41:45.132Z,2019-01-09T14:47:35.236Z,2019-01-09,good
40.8518562,14.2467651,"Via Salvatore Tommasi, 20 80135 Napoli NA Italia",San Giuseppe dei Vecchi e Immacolata di Lourdes,2019-01-10T09:41:51Z,2019-01-10T10:18:34.604Z,2019-01-10,good
40.8432215,14.2489647,"Via Armando Diaz, 180/B, I-80134 Napoli, Italia","Via Armando Diaz, 180/B",2019-01-10T10:36:15.011Z,2019-01-10T15:01:57.555Z,2019-01-10,good
40.8464548,14.2560308,"Via Mezzocannone, 75 80134 Napoli NA Italia",Tandem d'asporto,2019-01-11T19:09:54.692Z,2019-01-11T19:50:29.927Z,2019-01-11,good
40.8283157,14.2476044,"Via Eldorado, 3 80132 Napoli NA Italia",Ovo Castle,2019-01-12T13:08:50.130Z,2019-01-12T13:20:19.281Z,2019-01-12,rad
40.8300678,14.2456952,"Via Partenope, 31 80121 Napoli NA Italia",Gusto & Gusto,2019-01-12T13:49:12.613Z,2019-01-12T15:12:50.433Z,2019-01-12,rad
40.8320239,14.2399268,"Via Francesco Caracciolo, 38 80122 Napoli NA Italia",Playground,2019-01-12T15:18:54.006Z,2019-01-12T15:37:03.635Z,2019-01-12,rad
40.8345921,14.2423378,"via Santa Caterina a Via Chiaia, 23 80133 Napoli NA Italia",Feltrinelli Bookstores,2019-01-12T15:45:10.843Z,2019-01-12T15:55:47.504Z,2019-01-12,rad
40.8466152,14.2472492,"Via Portamedina, 3/4 5 80134 Napoli NA Italia",Pescheria Azzurra,2019-01-12T16:30:31.295Z,2019-01-12T16:46:01.996Z,2019-01-12,rad
40.8481795,14.2544539,"Via Benedetto Croce, 30/31 80134 Napoli NA Italy",Leopoldo Cafebar,2019-01-12T17:27:29.718Z,2019-01-12T17:35:36.854Z,2019-01-12,rad
40.8432215,14.2489647,"Via Armando Diaz, 180/B, I-80134 Napoli, Italia","Via Armando Diaz, 180/B",2019-01-12T18:03:53.687Z,2019-01-12T22:05:18Z,2019-01-12,rad
40.8421077,14.2476472,"Vico Lungo Teatro Nuovo, 31 80134 Napoli NA Italia",Pisadog 19,2019-01-12T22:13:57.170Z,2019-01-12T22:43:53.561Z,2019-01-12,rad
40.8470936,14.2517471,"Piazza del Gesù Nuovo, 2 80134 Napoli NA Italia",Gesù Nuovo Square,2019-01-12T22:54:07.650Z,2019-01-12T23:00:55.164Z,2019-01-12,rad
40.8483179,14.2552849,"Via Mezzocannone, 145 80134 Napoli NA Italia",PaninAzz!,2019-01-12T23:01:15.600Z,2019-01-12T23:57:01.780Z,2019-01-12,rad
40.8459443,14.2557766,"Via S. Giovanni Maggiore Pignatelli, 27 80134 Napoli NA Italia",Kestè,2019-01-13T00:01:05.652Z,2019-01-13T00:57:49.537Z,2019-01-13,meh
40.8540952,14.270691,"Corso Arnaldo Lucci, 74/76 80142 Napoli NA Italia",Gi Optical Sas,2019-01-18T13:17:53.242Z,2019-01-18T13:37:58.956Z,2019-01-18,bad
40.842285,14.2497712,"Via Roberto Bracco, 4/8 80100 Napoli NA Italia",Conad - Supermercato,2019-01-21T09:57:14.952Z,2019-01-21T10:03:15.851Z,2019-01-21,bad
40.8394614,14.2300321,"Via Domenico Cimarosa, 77 80127 Napoli NA Italia",Duca di Martina National Ceramic Museum at Villa Floridiana,2019-01-21T10:28:57.081Z,2019-01-21T10:53:23.499Z,2019-01-21,bad
40.8424288,14.2291252,"Via Domenico Cimarosa, 77 80127 Napoli NA Italia",Parco villa Floridiana,2019-01-21T11:02:48.180Z,2019-01-21T11:45:54Z,2019-01-21,bad
40.8458382,14.2478436,"Via Pignasecca, 35 80134 Napoli NA Italia",Coppola Vincenzo,2019-01-21T12:17:44.755Z,2019-01-23T10:51:27Z,2019-01-21,bad
40.8441695,14.2586909,"Via Nuova Marina, 20 80142 Napoli NA Italia",Intesa Sanpaolo Spa - Filiale HUB,2019-01-23T11:00:48.692Z,2019-01-23T12:25:59Z,2019-01-23,meh
40.8423793,14.2494379,"Via Armando Diaz, 20 80134 Napoli NA Italia",Caffè Bistrot Toledo,2019-01-23T18:38:28.043Z,2019-01-23T19:30:01.848Z,2019-01-23,meh
40.8454927,14.2507609,"Via Sant'Anna dei Lombardi, 34 80134 Napoli NA Italia",BAGAGLI Eddybags,2019-01-28T17:35:37.171Z,2019-01-28T18:03:36.850Z,2019-01-28,meh
40.8432215,14.2489647,"Via Armando Diaz, 180/B, I-80134 Napoli, Italia","Via Armando Diaz, 180/B",2019-01-28T21:24:56Z,2019-01-29T08:41:21.365Z,2019-01-28,meh
40.8365353,14.2504411,"Piazza del Plebiscito, 1 80132 Napoli NA Italia",Royal Palace of Naples,2019-01-29T10:31:21Z,2019-01-29T11:06:12Z,2019-01-29,good
50.7198766,-1.8821371,Terrace Rd Bournemouth BH2 5NN UK,NCP Car Park Bournemouth Terrace Road,2019-07-05T09:53:38.056Z,2019-07-05T10:32:16.563Z,2019-07-05,rad
50.717435,-1.876332,Westover Road Bournemouth BH2 5AH UK,Bournemouth Parks - Lower Gardens,2019-07-05T10:38:19.711Z,2019-07-05T11:04:56.042Z,2019-07-05,rad
50.7216299,-1.874567,27 Fir Vale Rd Bournemouth BH1 2JN UK,27 Fir Vale Rd,2019-07-05T11:09:31.375Z,2019-07-05T11:15:43.746Z,2019-07-05,rad
50.7247701,-1.8672498,Cranborne House St Paul's Pl Boscombe Bournemouth BH8 8HF UK,Cranborne House,2019-07-05T11:19:29.516Z,2019-07-05T16:19:21.455Z,2019-07-05,rad
50.7257932,-1.861362,44 St Swithun's Rd Boscombe Bournemouth BH1 3RJ UK,Bournemouth Pizza Co,2019-07-05T17:35:57.411Z,2019-07-05T19:04:52.529Z,2019-07-05,rad
50.7216299,-1.874567,27 Fir Vale Rd Bournemouth BH1 2JN UK,27 Fir Vale Rd,2019-07-05T19:34:35.008Z,2019-07-06T08:40:03.602Z,2019-07-05,rad
50.7247701,-1.8672498,Cranborne House St Paul's Pl Boscombe Bournemouth BH8 8HF UK,Cranborne House,2019-07-06T08:46:59.227Z,2019-07-06T10:34:34.890Z,2019-07-06,rad
50.7217802,-1.8758491,Richmond Gardens Shopping Centre Old Christchurch Rd Bournemouth BH1 1EP UK,Richmond Gardens Shopping Centre,2019-07-06T10:44:51.788Z,2019-07-06T11:11:56.346Z,2019-07-06,rad
50.7208471,-1.8825787,21 Commercial Rd Bournemouth BH2 5RP UK,The Avenue,2019-07-06T11:18:01.473Z,2019-07-06T11:32:13.887Z,2019-07-06,rad
50.7247701,-1.8672498,Cranborne House St Paul's Pl Boscombe Bournemouth BH8 8HF UK,Cranborne House,2019-07-06T11:51:06.257Z,2019-07-06T14:40:55.595Z,2019-07-06,rad
50.7223669,-1.8733683,144 Old Christchurch Rd Bournemouth BH1 1NL UK,Pyramids,2019-07-06T14:56:10.740Z,2019-07-06T15:03:45.654Z,2019-07-06,rad
50.7198766,-1.8821371,Terrace Rd Bournemouth BH2 5NN UK,NCP Car Park Bournemouth Terrace Road,2019-07-06T15:09:54.990Z,2019-07-06T15:28:33.735Z,2019-07-06,rad
50.7216299,-1.874567,27 Fir Vale Rd Bournemouth BH1 2JN UK,27 Fir Vale Rd,2019-07-06T15:35:36.272Z,2019-07-07T09:14:30.431Z,2019-07-06,rad
50.7201496,-1.8844731,Vitalife skinny 26 B The Triangle Bournemouth BH2 5SE UK,Vitalife skinny,2019-07-07T09:23:42.696Z,2019-07-07T09:36:52Z,2019-07-07,rad
50.7217802,-1.8758491,Richmond Gardens Shopping Centre Old Christchurch Rd Bournemouth BH1 1EP UK,Richmond Gardens Shopping Centre,2019-07-07T09:44:36.387Z,2019-07-07T12:21:07.929Z,2019-07-07,rad
50.7247701,-1.8672498,Cranborne House St Paul's Pl Boscombe Bournemouth BH8 8HF UK,Cranborne House,2019-07-07T12:32:57.578Z,2019-07-07T17:20:12.566Z,2019-07-07,rad
50.7213532,-1.8656533,"Lansdowne Roundabout Boscombe, Bournemouth BH1 3JJ UK",Bournemouth and Poole College,2019-07-07T17:28:31.774Z,2019-07-07T17:57:25.895Z,2019-07-07,rad
50.7247701,-1.8672498,Cranborne House St Paul's Pl Boscombe Bournemouth BH8 8HF UK,Cranborne House,2019-07-07T19:42:56.564Z,2019-07-07T22:06:54.721Z,2019-07-07,rad
50.7247701,-1.8672498,Cranborne House St Paul's Pl Boscombe Bournemouth BH8 8HF UK,Cranborne House,2019-07-08T12:41:01.833Z,2019-07-08T13:38:18.940Z,2019-07-08,rad
50.7200793,-1.8788846,Bournemouth BH1 1DY UK,Bournemouth Square (Stand O),2019-07-08T15:14:16.658Z,2019-07-08T15:29:43.366Z,2019-07-08,rad
50.7247701,-1.8672498,Cranborne House St Paul's Pl Boscombe Bournemouth BH8 8HF UK,Cranborne House,2019-07-08T15:46:03.115Z,2019-07-08T17:08:14.170Z,2019-07-08,rad
50.7217515,-1.8660695,"Lansdowne Roundabout Boscombe, Bournemouth BH1 3JJ UK",The Bournemouth and Poole College International,2019-07-08T17:15:06.128Z,2019-07-08T18:02:34.477Z,2019-07-08,rad
50.7247701,-1.8672498,Cranborne House St Paul's Pl Boscombe Bournemouth BH8 8HF UK,Cranborne House,2019-07-08T20:22:46.232Z,2019-07-08T20:36:58.598Z,2019-07-08,rad
50.7216299,-1.874567,27 Fir Vale Rd Bournemouth BH1 2JN UK,27 Fir Vale Rd,2019-07-08T20:45:05.096Z,2019-07-09T06:28:48Z,2019-07-08,rad
50.7272168,-1.8641023,Holdenhurst Rd Boscombe Bournemouth BH8 8HX UK,Bournemouth,2019-07-09T06:41:12.171Z,2019-07-09T06:55:37.605Z,2019-07-09,good
50.8997299,-1.4025121,St Cross House 18 Bernard St Southampton SO14 3PJ UK,Jobcentre Plus,2019-07-09T07:52:04.475Z,2019-07-09T09:01:39.143Z,2019-07-09,good
50.907232,-1.4133646,Central Station Bridge Blechynden Terrace Southampton SO15 1AL UK,Southampton Central,2019-07-09T09:17:10.798Z,2019-07-09T09:24:20.641Z,2019-07-09,good
50.7216299,-1.874567,27 Fir Vale Rd Bournemouth BH1 2JN UK,27 Fir Vale Rd,2019-07-09T10:27:40.354Z,2019-07-09T12:34:32Z,2019-07-09,good
50.7217802,-1.8758491,Richmond Gardens Shopping Centre Old Christchurch Rd Bournemouth BH1 1EP UK,Richmond Gardens Shopping Centre,2019-07-09T12:34:43.599Z,2019-07-09T12:43:35.677Z,2019-07-09,good
50.7247701,-1.8672498,Cranborne House St Paul's Pl Boscombe Bournemouth BH8 8HF UK,Cranborne House,2019-07-09T12:53:10.466Z,2019-07-09T15:38:19.075Z,2019-07-09,good
50.7206231,-1.8791728,"Unit 5&6, Bristol & West House Richmond Hill Dr Bournemouth BH2 6HE UK",Starbucks,2019-07-09T15:51:01.023Z,2019-07-09T16:24:33.666Z,2019-07-09,good
50.7247701,-1.8672498,Cranborne House St Paul's Pl Boscombe Bournemouth BH8 8HF UK,Cranborne House,2019-07-09T16:43:32.779Z,2019-07-09T17:03:11.670Z,2019-07-09,good
50.7213532,-1.8656533,"Lansdowne Roundabout Boscombe, Bournemouth BH1 3JJ UK",Bournemouth and Poole College,2019-07-09T17:11:32.613Z,2019-07-09T17:54:47Z,2019-07-09,good
50.7247701,-1.8672498,Cranborne House St Paul's Pl Boscombe Bournemouth BH8 8HF UK,Cranborne House,2019-07-09T20:23:31.866Z,2019-07-09T20:35:40.580Z,2019-07-09,good
50.7217802,-1.8758491,Richmond Gardens Shopping Centre Old Christchurch Rd Bournemouth BH1 1EP UK,Richmond Gardens Shopping Centre,2019-07-10T09:21:10.034Z,2019-07-10T09:50:40.345Z,2019-07-10,rad
50.7216299,-1.874567,27 Fir Vale Rd Bournemouth BH1 2JN UK,27 Fir Vale Rd,2019-07-10T10:00:56.058Z,2019-07-10T12:42:27.347Z,2019-07-10,rad
50.7247701,-1.8672498,Cranborne House St Paul's Pl Boscombe Bournemouth BH8 8HF UK,Cranborne House,2019-07-10T12:50:36.536Z,2019-07-10T13:15:32.529Z,2019-07-10,rad
50.6960382,-1.9303795,Poole BH13 7PN UK,Shore Road Car Park,2019-07-10T13:39:39.473Z,2019-07-10T14:25:54.484Z,2019-07-10,rad
50.6410988,-1.9278189,Studland Wood Swanage BH19 3AN UK,Studland Wood,2019-07-10T14:41:36Z,2019-07-10T14:49:42.956Z,2019-07-10,rad
50.695151,-1.930063,28 Shore Rd Poole BH13 7PJ UK,Jazz Cafe,2019-07-10T15:06:14.998Z,2019-07-10T16:23:30.801Z,2019-07-10,rad
50.7213532,-1.8656533,"Lansdowne Roundabout Boscombe, Bournemouth BH1 3JJ UK",Bournemouth and Poole College,2019-07-10T16:54:26.929Z,2019-07-10T17:36:28.084Z,2019-07-10,rad
50.7247701,-1.8672498,Cranborne House St Paul's Pl Boscombe Bournemouth BH8 8HF UK,Cranborne House,2019-07-10T17:43:15.503Z,2019-07-10T21:51:37.221Z,2019-07-10,rad
50.7216299,-1.874567,27 Fir Vale Rd Bournemouth BH1 2JN UK,27 Fir Vale Rd,2019-07-10T21:59:33.293Z,2019-07-11T12:20:13Z,2019-07-10,rad
50.7217802,-1.8758491,Richmond Gardens Shopping Centre Old Christchurch Rd Bournemouth BH1 1EP UK,Richmond Gardens Shopping Centre,2019-07-11T12:20:28Z,2019-07-11T12:31:09.036Z,2019-07-11,rad
50.7247701,-1.8672498,Cranborne House St Paul's Pl Boscombe Bournemouth BH8 8HF UK,Cranborne House,2019-07-11T12:39:12.094Z,2019-07-11T13:39:42.305Z,2019-07-11,rad
50.7247701,-1.8672498,Cranborne House St Paul's Pl Boscombe Bournemouth BH8 8HF UK,Cranborne House,2019-07-11T16:15:31.134Z,2019-07-11T17:16:30.013Z,2019-07-11,rad
50.7213532,-1.8656533,"Lansdowne Roundabout Boscombe, Bournemouth BH1 3JJ UK",Bournemouth and Poole College,2019-07-11T17:22:34.174Z,2019-07-11T18:04:43Z,2019-07-11,rad
50.7219793,-1.873773,Fir Vale Rd Bournemouth BH1 2JA UK,Cameo,2019-07-11T18:15:07.193Z,2019-07-11T19:46:00.498Z,2019-07-11,rad
50.7247701,-1.8672498,Cranborne House St Paul's Pl Boscombe Bournemouth BH8 8HF UK,Cranborne House,2019-07-11T19:56:05.316Z,2019-07-11T21:39:43.387Z,2019-07-11,rad
50.7216299,-1.874567,27 Fir Vale Rd Bournemouth BH1 2JN UK,27 Fir Vale Rd,2019-07-11T21:48:50.533Z,2019-07-12T12:57:14.101Z,2019-07-11,rad
50.7175356,-1.8705194,Russell-Cotes Art Gallery and Museum East Cliff Promenade Bournemouth BH1 3AA UK,Russell Cotes Art Gallery & Museum,2019-07-12T13:21:45.227Z,2019-07-12T17:43:35.217Z,2019-07-12,rad
50.7216299,-1.874567,27 Fir Vale Rd Bournemouth BH1 2JN UK,27 Fir Vale Rd,2019-07-12T20:11:13.686Z,2019-07-13T06:56:19Z,2019-07-12,rad
50.7213532,-1.8656533,"Lansdowne Roundabout Boscombe, Bournemouth BH1 3JJ UK",Bournemouth and Poole College,2019-07-13T07:03:19Z,2019-07-13T07:23:24.393Z,2019-07-13,rad
50.7272168,-1.8641023,Holdenhurst Rd Boscombe Bournemouth BH8 8HX UK,Bournemouth,2019-07-13T07:34:40.323Z,2019-07-13T07:56:59.849Z,2019-07-13,rad
51.5031653,-0.1123051,Waterloo Rd London SE1 8SW UK,Waterloo Station,2019-07-13T09:51:50.583Z,2019-07-13T10:08:11.939Z,2019-07-13,rad
51.503324,-0.119543,"Riverside Building, County Hall London SE1 7PB UK",Coca-Cola London Eye,2019-07-13T10:16:17.663Z,2019-07-13T12:43:51Z,2019-07-13,rad
51.508039,-0.128069,Trafalgar Sq London WC2N 5DN UK,Trafalgar Square,2019-07-13T13:10:46.055Z,2019-07-13T13:23:27.641Z,2019-07-13,rad
51.5106715,-0.1312887,1 Swiss Ct London W1D 6AP UK,M&M's World,2019-07-13T13:28:05.936Z,2019-07-13T14:30:55.822Z,2019-07-13,rad
51.509849,-0.129145,17-18 Irving St London WC2H 7AT UK,MOD Pizza - Leicester Square,2019-07-13T14:36:43.529Z,2019-07-13T16:01:59.937Z,2019-07-13,rad
51.5031653,-0.1123051,Waterloo Rd London SE1 8SW UK,Waterloo Station,2019-07-13T16:30:39.383Z,2019-07-13T16:54:51.368Z,2019-07-13,rad
50.7247701,-1.8672498,Cranborne House St Paul's Pl Boscombe Bournemouth BH8 8HF UK,Cranborne House,2019-07-13T19:21:25.630Z,2019-07-13T20:07:31.298Z,2019-07-13,rad
50.7216299,-1.874567,27 Fir Vale Rd Bournemouth BH1 2JN UK,27 Fir Vale Rd,2019-07-13T20:18:20.780Z,2019-07-14T07:47:56Z,2019-07-13,rad
50.7247701,-1.8672498,Cranborne House St Paul's Pl Boscombe Bournemouth BH8 8HF UK,Cranborne House,2019-07-14T07:54:51.379Z,2019-07-14T08:24:00.522Z,2019-07-14,rad
50.643993,-2.054625,"Arfleet Mill Lakes, Studland Road Corfe Castle BH20 5JG UK",Dorset Adventure Park,2019-07-14T09:09:56.658Z,2019-07-14T11:41:59.880Z,2019-07-14,rad
50.640129,-2.0587958,The Square Corfe Castle Wareham BH20 5EZ UK,Corfe Castle,2019-07-14T11:50:04.420Z,2019-07-14T14:13:18.485Z,2019-07-14,rad
50.7247701,-1.8672498,Cranborne House St Paul's Pl Boscombe Bournemouth BH8 8HF UK,Cranborne House,2019-07-14T15:12:19.179Z,2019-07-14T17:13:32.513Z,2019-07-14,rad
50.7213532,-1.8656533,"Lansdowne Roundabout Boscombe, Bournemouth BH1 3JJ UK",Bournemouth and Poole College,2019-07-14T17:19:34.758Z,2019-07-14T17:51:56.200Z,2019-07-14,rad
50.7247701,-1.8672498,Cranborne House St Paul's Pl Boscombe Bournemouth BH8 8HF UK,Cranborne House,2019-07-14T19:58:37.285Z,2019-07-14T20:36:28.844Z,2019-07-14,rad
50.7216299,-1.874567,27 Fir Vale Rd Bournemouth BH1 2JN UK,27 Fir Vale Rd,2019-07-14T20:43:26.247Z,2019-07-15T08:05:44.255Z,2019-07-14,rad
50.7217802,-1.8758491,Richmond Gardens Shopping Centre Old Christchurch Rd Bournemouth BH1 1EP UK,Richmond Gardens Shopping Centre,2019-07-15T08:10:43.615Z,2019-07-15T12:40:01Z,2019-07-15,good
50.7247701,-1.8672498,Cranborne House St Paul's Pl Boscombe Bournemouth BH8 8HF UK,Cranborne House,2019-07-15T12:48:44.814Z,2019-07-15T13:19:54.818Z,2019-07-15,good
50.7199715,-1.8781467,Bournemouth BH1 1DR UK,Roddis House,2019-07-15T13:39:38.033Z,2019-07-15T13:51:36.908Z,2019-07-15,good
50.7216299,-1.874567,27 Fir Vale Rd Bournemouth BH1 2JN UK,27 Fir Vale Rd,2019-07-19T22:04:27.915Z,2019-07-20T07:44:52Z,2019-07-19,rad
50.7213532,-1.8656533,"Lansdowne Roundabout Boscombe, Bournemouth BH1 3JJ UK",Bournemouth and Poole College,2019-07-20T07:52:50.295Z,2019-07-20T08:18:44.768Z,2019-07-20,rad
51.3794031,-2.3641802,Avon St Bath BA1 1UT UK,Riverside Coach Park,2019-07-20T10:14:50.312Z,2019-07-20T11:08:06.163Z,2019-07-20,rad
51.3857067,-2.3708195,Marlborough Ln Bath BA1 2NQ UK,Royal Victoria Park,2019-07-20T11:21:20.869Z,2019-07-20T11:30:31.790Z,2019-07-20,rad
51.3814809,-2.3587346,Bath BA1 1LT UK,Bath Abbey,2019-07-20T11:51:37.804Z,2019-07-20T12:44:59.066Z,2019-07-20,rad
51.3793849,-2.3611066,12 St James's Parade Bath BA1 1UL UK,D & J Shoe Repairs,2019-07-20T12:47:00.563Z,2019-07-20T14:21:11Z,2019-07-20,rad
51.3822197,-2.3589238,High St Bath BA1 5AW UK,Guildhall,2019-07-20T14:21:27Z,2019-07-20T14:53:58.284Z,2019-07-20,rad
51.3788699,-2.3592482,Management Suite 12 Southgate St Bath BA1 1AQ UK,SouthGate,2019-07-20T14:54:17.473Z,2019-07-20T15:15:22.035Z,2019-07-20,rad
51.3814809,-2.3587346,Bath BA1 1LT UK,Bath Abbey,2019-07-20T15:23:23.209Z,2019-07-20T15:39:06.408Z,2019-07-20,rad
51.3788699,-2.3592482,Management Suite 12 Southgate St Bath BA1 1AQ UK,SouthGate,2019-07-20T15:43:09.241Z,2019-07-20T17:09:10.165Z,2019-07-20,rad
51.3794031,-2.3641802,Avon St Bath BA1 1UT UK,Riverside Coach Park,2019-07-20T17:17:47Z,2019-07-20T17:39:18.060Z,2019-07-20,rad
50.7222151,-1.8658603,3/5 Lansdowne Roundabout Boscombe Bournemouth BH8 8AA UK,KFC,2019-07-20T19:40:11.180Z,2019-07-20T20:10:33.747Z,2019-07-20,rad
50.7213532,-1.8656533,"Lansdowne Roundabout Boscombe, Bournemouth BH1 3JJ UK",Bournemouth and Poole College,2019-07-21T07:10:28.396Z,2019-07-21T07:31:26.701Z,2019-07-21,rad
50.7272168,-1.8641023,Holdenhurst Rd Boscombe Bournemouth BH8 8HX UK,Bournemouth,2019-07-21T07:40:32.049Z,2019-07-21T07:46:18.679Z,2019-07-21,rad
50.8288738,-0.1409956,Queens Rd Brighton BN1 3XP UK,Brighton,2019-07-21T10:24:14.700Z,2019-07-21T10:41:05.200Z,2019-07-21,rad
50.8192725,-0.1375474,254 Kings Rd Brighton BN2 1TD UK,Seasiders,2019-07-21T11:05:10Z,2019-07-21T11:54:53.715Z,2019-07-21,rad
50.8242594,-0.1362747,12a Marlborough Pl Brighton BN1 1WN UK,Victoria Gardens,2019-07-21T12:08:39.827Z,2019-07-21T12:14:37.891Z,2019-07-21,rad
50.8261111,-0.1391531,5 5A Upper Gardner St Brighton BN1 4AN UK,North Laine Bazaar,2019-07-21T12:21:57.250Z,2019-07-21T12:50:09.688Z,2019-07-21,rad
50.8205721,-0.1392104,66 East St Brighton BN1 1HQ UK,Paperchase,2019-07-21T13:11:04.594Z,2019-07-21T14:17:18.364Z,2019-07-21,rad
50.8288738,-0.1409956,Queens Rd Brighton BN1 3XP UK,Brighton,2019-07-21T14:43:52.160Z,2019-07-21T15:00:27.689Z,2019-07-21,rad
50.907232,-1.4133646,Central Station Bridge Blechynden Terrace Southampton SO15 1AL UK,Southampton Central,2019-07-21T16:56:26.164Z,2019-07-21T17:06:35.170Z,2019-07-21,rad
50.7213532,-1.8656533,"Lansdowne Roundabout Boscombe, Bournemouth BH1 3JJ UK",Bournemouth and Poole College,2019-07-21T17:50:02.625Z,2019-07-21T18:17:32.379Z,2019-07-21,rad
50.7247701,-1.8672498,Cranborne House St Paul's Pl Boscombe Bournemouth BH8 8HF UK,Cranborne House,2019-07-21T18:18:53.507Z,2019-07-21T19:00:37.303Z,2019-07-21,rad
50.7247701,-1.8672498,Cranborne House St Paul's Pl Boscombe Bournemouth BH8 8HF UK,Cranborne House,2019-07-22T12:52:15.085Z,2019-07-22T13:12:15.819Z,2019-07-22,rad
50.7159831,-1.876476,Oceanarium Pier Approach Bournemouth BH2 5AA UK,Oceanarium,2019-07-22T13:31:08.869Z,2019-07-22T14:36:16.353Z,2019-07-22,rad
50.7247701,-1.8672498,Cranborne House St Paul's Pl Boscombe Bournemouth BH8 8HF UK,Cranborne House,2019-07-22T15:57:20.358Z,2019-07-22T17:00:57.180Z,2019-07-22,rad
50.7217802,-1.8758491,Richmond Gardens Shopping Centre Old Christchurch Rd Bournemouth BH1 1EP UK,Richmond Gardens Shopping Centre,2019-07-22T17:07:41.170Z,2019-07-22T17:28:23.899Z,2019-07-22,rad
50.7216299,-1.874567,27 Fir Vale Rd Bournemouth BH1 2JN UK,27 Fir Vale Rd,2019-07-22T17:31:03.607Z,2019-07-22T20:51:53.709Z,2019-07-22,rad
50.7247701,-1.8672498,Cranborne House St Paul's Pl Boscombe Bournemouth BH8 8HF UK,Cranborne House,2019-07-22T20:57:23.259Z,2019-07-22T23:28:08.818Z,2019-07-22,rad
50.7202346,-1.8786861,The Square 9-13 Old Christchurch Rd Bournemouth BH1 1DY UK,WHSmith,2019-07-23T12:04:37.453Z,2019-07-23T12:20:12.756Z,2019-07-23,rad
50.7247701,-1.8672498,Cranborne House St Paul's Pl Boscombe Bournemouth BH8 8HF UK,Cranborne House,2019-07-23T12:30:06.114Z,2019-07-23T13:25:15.472Z,2019-07-23,rad
50.7213532,-1.8656533,"Lansdowne Roundabout Boscombe, Bournemouth BH1 3JJ UK",Bournemouth and Poole College,2019-07-23T16:25:47.648Z,2019-07-23T16:30:43.552Z,2019-07-23,rad
50.7247701,-1.8672498,Cranborne House St Paul's Pl Boscombe Bournemouth BH8 8HF UK,Cranborne House,2019-07-23T16:32:48.538Z,2019-07-23T17:14:27.841Z,2019-07-23,rad
50.7213532,-1.8656533,"Lansdowne Roundabout Boscombe, Bournemouth BH1 3JJ UK",Bournemouth and Poole College,2019-07-23T17:21:24.670Z,2019-07-23T17:59:08.745Z,2019-07-23,rad
50.7237796,-1.8674666,Madeira Rd Bournemouth BH1 1QQ UK,The Co-operative Food,2019-07-23T18:02:45.328Z,2019-07-23T20:36:20.794Z,2019-07-23,rad
50.7216299,-1.874567,27 Fir Vale Rd Bournemouth BH1 2JN UK,27 Fir Vale Rd,2019-07-23T20:45:17.794Z,2019-07-24T12:21:40Z,2019-07-23,rad
50.7213532,-1.8656533,"Lansdowne Roundabout Boscombe, Bournemouth BH1 3JJ UK",Bournemouth and Poole College,2019-07-24T12:29:01.381Z,2019-07-24T12:52:06.793Z,2019-07-24,rad
50.6943341,-1.9314297,17 - 21 Banks Road Poole BH13 7PW UK,ACE Sandbanks,2019-07-24T13:09:33Z,2019-07-24T16:14:25.247Z,2019-07-24,rad
50.7213532,-1.8656533,"Lansdowne Roundabout Boscombe, Bournemouth BH1 3JJ UK",Bournemouth and Poole College,2019-07-24T16:58:00.357Z,2019-07-24T17:35:48Z,2019-07-24,rad
50.7247701,-1.8672498,Cranborne House St Paul's Pl Boscombe Bournemouth BH8 8HF UK,Cranborne House,2019-07-24T17:40:22.112Z,2019-07-24T20:06:28.475Z,2019-07-24,rad
50.7216299,-1.874567,27 Fir Vale Rd Bournemouth BH1 2JN UK,27 Fir Vale Rd,2019-07-24T20:14:09.499Z,2019-07-25T09:16:23.335Z,2019-07-24,rad
50.7213306,-1.8761677,The Quadrant Arcade 68 Old Christchurch Rd Bournemouth BH1 1LL UK,TK Maxx,2019-07-25T09:16:51.730Z,2019-07-25T09:57:51.408Z,2019-07-25,rad
50.7198142,-1.8776616,22 Gervis Pl Bournemouth BH1 2AL UK,John Anthony,2019-07-25T09:59:32.910Z,2019-07-25T10:30:19.543Z,2019-07-25,rad
50.7204599,-1.8841204,3-4 The Triangle Bournemouth BH2 5RG UK,Tesco Express,2019-07-25T10:37:34.288Z,2019-07-25T11:06:27Z,2019-07-25,rad
50.7201783,-1.8784795,15 Old Christchurch Rd Bournemouth BH1 1DR UK,Accessorize,2019-07-25T11:11:34.272Z,2019-07-25T18:01:26.446Z,2019-07-25,rad
50.7216299,-1.874567,27 Fir Vale Rd Bournemouth BH1 2JN UK,27 Fir Vale Rd,2019-07-25T19:07:36.074Z,2019-07-26T12:20:12.525Z,2019-07-25,rad
50.7217802,-1.8758491,Richmond Gardens Shopping Centre Old Christchurch Rd Bournemouth BH1 1EP UK,Richmond Gardens Shopping Centre,2019-07-26T12:20:12.526Z,2019-07-26T12:33:44.457Z,2019-07-26,rad
50.7247701,-1.8672498,Cranborne House St Paul's Pl Boscombe Bournemouth BH8 8HF UK,Cranborne House,2019-07-26T12:41:48.604Z,2019-07-26T13:30:10.334Z,2019-07-26,rad
50.7216299,-1.874567,27 Fir Vale Rd Bournemouth BH1 2JN UK,27 Fir Vale Rd,2019-07-26T13:36:16.270Z,2019-07-26T13:49:11.606Z,2019-07-26,rad
50.7247701,-1.8672498,Cranborne House St Paul's Pl Boscombe Bournemouth BH8 8HF UK,Cranborne House,2019-07-26T13:55:13.781Z,2019-07-26T14:12:11.241Z,2019-07-26,rad
50.7216299,-1.874567,27 Fir Vale Rd Bournemouth BH1 2JN UK,27 Fir Vale Rd,2019-07-26T15:19:12.268Z,2019-07-27T07:32:04Z,2019-07-26,rad
50.7213532,-1.8656533,"Lansdowne Roundabout Boscombe, Bournemouth BH1 3JJ UK",Bournemouth and Poole College,2019-07-27T07:37:23.241Z,2019-07-27T07:49:26.668Z,2019-07-27,rad
50.7269535,-1.864544,"Unnamed Road Boscombe, Bournemouth BH8 8HX UK",Bournemouth Train Station Waiting Zone,2019-07-27T08:02:12.379Z,2019-07-27T08:21:43.372Z,2019-07-27,rad
51.5031653,-0.1123051,Waterloo Rd London SE1 8SW UK,Waterloo Station,2019-07-27T10:23:37.506Z,2019-07-27T10:45:02.820Z,2019-07-27,rad
51.4994794,-0.1248092,London SW1A 0AA UK,Palace of Westminster,2019-07-27T11:03:26.359Z,2019-07-27T11:15:26.096Z,2019-07-27,rad
51.5024597,-0.1348109,London SW1H 9AP UK,St James's Park,2019-07-27T11:19:35.116Z,2019-07-27T11:36:33.590Z,2019-07-27,rad
51.511451,-0.128144,Cranbourn St London WC2H 0AP UK,Leicester Square Station,2019-07-27T11:47:13.098Z,2019-07-27T11:52:41.420Z,2019-07-27,rad
51.515673,-0.126015,168 High Holborn London WC1V 7AA UK,The Craft Beer Co. Covent Garden,2019-07-27T11:57:49.166Z,2019-07-27T12:03:06.241Z,2019-07-27,rad
51.5194133,-0.1269566,Great Russell St London WC1B 3DG UK,The British Museum,2019-07-27T12:03:27.267Z,2019-07-27T12:12:41.399Z,2019-07-27,rad
50.7247701,-1.8672498,Cranborne House St Paul's Pl Boscombe Bournemouth BH8 8HF UK,Cranborne House,2019-07-27T20:13:55.060Z,2019-07-27T20:25:38.470Z,2019-07-27,rad
50.7216299,-1.874567,27 Fir Vale Rd Bournemouth BH1 2JN UK,27 Fir Vale Rd,2019-07-27T20:35:20.984Z,2019-07-28T07:32:18.464Z,2019-07-27,rad
50.7247701,-1.8672498,Cranborne House St Paul's Pl Boscombe Bournemouth BH8 8HF UK,Cranborne House,2019-07-28T07:43:58.931Z,2019-07-28T08:33:55.629Z,2019-07-28,rad
50.726795,-1.864802,Boscombe Bournemouth BH8 8DL UK,Bournemouth (Coach Station),2019-07-28T08:44:01.564Z,2019-07-28T08:52:36.534Z,2019-07-28,rad
50.7196614,-1.877402,Bournemouth BH1 2AA UK,Bournemouth Square (Stand T),2019-07-28T08:56:48.992Z,2019-07-28T09:04:32.483Z,2019-07-28,rad
50.6099025,-1.9602061,Station Rd Swanage BH19 1HB UK,Swanage Railway,2019-07-28T11:11:55.345Z,2019-07-28T11:19:06.807Z,2019-07-28,rad
50.6090494,-1.9569461,1 Institute Rd Swanage BH19 1BT UK,The Cornish Bakery,2019-07-28T11:22:59.318Z,2019-07-28T11:34:44.903Z,2019-07-28,rad
50.6106015,-1.9576837,Shore Rd Swanage BH19 1LB UK,Purbeck Heritage Coast,2019-07-28T12:01:26.719Z,2019-07-28T13:16:46.066Z,2019-07-28,rad
50.6099025,-1.9602061,Station Rd Swanage BH19 1HB UK,Swanage Railway,2019-07-28T13:45:02.976Z,2019-07-28T15:01:43.223Z,2019-07-28,rad
50.7346718,-1.8690906,1-13 Charminster Rd Bournemouth BH8 8UE UK,Tesco Express,2019-07-28T15:17:25.480Z,2019-07-28T15:51:15.215Z,2019-07-28,rad
50.7186662,-1.9806669,110 Dolphin Centre Poole BH15 1SZ UK,Dolphin Shopping Centre,2019-07-28T15:57:56.966Z,2019-07-28T16:05:13.731Z,2019-07-28,rad
50.7213532,-1.8656533,"Lansdowne Roundabout Boscombe, Bournemouth BH1 3JJ UK",Bournemouth and Poole College,2019-07-28T16:51:12.264Z,2019-07-28T17:31:22.254Z,2019-07-28,rad
50.7247701,-1.8672498,Cranborne House St Paul's Pl Boscombe Bournemouth BH8 8HF UK,Cranborne House,2019-07-28T17:36:46.911Z,2019-07-28T19:16:05.142Z,2019-07-28,rad
50.7247701,-1.8672498,Cranborne House St Paul's Pl Boscombe Bournemouth BH8 8HF UK,Cranborne House,2019-07-29T12:46:26.776Z,2019-07-29T13:22:07.213Z,2019-07-29,rad
50.7196605,-1.8792773,Bournemouth BH1 1DU UK,The Hedgehog,2019-07-29T13:40:09.916Z,2019-07-29T13:54:50.636Z,2019-07-29,rad
50.7188292,-1.8795516,Bh2 Leisure Exeter Cres Bournemouth BH2 5DD UK,BH2 Leisure,2019-07-29T13:56:06.946Z,2019-07-29T14:50:48.040Z,2019-07-29,rad
50.7200793,-1.8788846,Bournemouth BH1 1DY UK,Bournemouth Square (Stand O),2019-07-29T14:51:17.002Z,2019-07-29T14:58:38.207Z,2019-07-29,rad
50.7217802,-1.8758491,Richmond Gardens Shopping Centre Old Christchurch Rd Bournemouth BH1 1EP UK,Richmond Gardens Shopping Centre,2019-07-29T15:01:28.603Z,2019-07-29T15:13:27.437Z,2019-07-29,rad
50.7247701,-1.8672498,Cranborne House St Paul's Pl Boscombe Bournemouth BH8 8HF UK,Cranborne House,2019-07-29T15:20:31.415Z,2019-07-29T17:07:24.049Z,2019-07-29,rad
50.7213532,-1.8656533,"Lansdowne Roundabout Boscombe, Bournemouth BH1 3JJ UK",Bournemouth and Poole College,2019-07-29T17:14:09.351Z,2019-07-29T17:49:00.369Z,2019-07-29,rad
50.7213532,-1.8656533,"Lansdowne Roundabout Boscombe, Bournemouth BH1 3JJ UK",Bournemouth and Poole College,2019-07-29T19:21:35.423Z,2019-07-29T19:26:29.537Z,2019-07-29,rad
50.7247701,-1.8672498,Cranborne House St Paul's Pl Boscombe Bournemouth BH8 8HF UK,Cranborne House,2019-07-29T19:28:17.878Z,2019-07-29T20:57:29.012Z,2019-07-29,rad
50.7217802,-1.8758491,Richmond Gardens Shopping Centre Old Christchurch Rd Bournemouth BH1 1EP UK,Richmond Gardens Shopping Centre,2019-07-30T14:22:37.454Z,2019-07-30T14:41:29.520Z,2019-07-30,meh
50.7216299,-1.874567,27 Fir Vale Rd Bournemouth BH1 2JN UK,27 Fir Vale Rd,2019-07-30T14:42:22.652Z,2019-07-31T14:56:32.572Z,2019-07-30,meh
50.7188292,-1.8795516,Bh2 Leisure Exeter Cres Bournemouth BH2 5DD UK,BH2 Leisure,2019-07-31T14:59:53.014Z,2019-07-31T15:06:57.842Z,2019-07-31,rad
50.720638,-1.8761,The Quadrant Centre Bournemouth BH1 2AD UK,The Mary Shelley,2019-07-31T15:32:14.413Z,2019-07-31T17:30:06.871Z,2019-07-31,rad
50.7216299,-1.874567,27 Fir Vale Rd Bournemouth BH1 2JN UK,27 Fir Vale Rd,2019-07-31T17:32:12.405Z,2019-08-01T09:45:24.693Z,2019-07-31,rad
40.8954161,14.1812967,"Via Casalanno, 103/105 80016 Marano di Napoli NA Italia",Bar My S.A.S. - Immacolata Concetta Di Cerullo,2019-06-01T19:10:17.785Z,2019-06-01T23:17:10.777Z,2019-06-01,good
40.0002059,15.3594388,"Via Sirene, 67 84059 Marina di Camerota SA Italia",Villaggio Camping,2019-06-09T19:19:19Z,2019-06-10T05:08:47Z,2019-06-09,rad
40.6930408,14.8349488,A2 Autostrada del Mediterraneo 84090 San Mango Piemonte SA Italia,Autogrill Salerno Est,2019-06-10T07:01:38Z,2019-06-10T07:06:40.766Z,2019-06-10,good
40.8529221,14.2723433,P.za Giuseppe Garibaldi 80142 Napoli NA Italia,Napoli Centrale,2019-06-10T08:02:16.508Z,2019-06-10T08:09:34.878Z,2019-06-10,good
40.8553252,14.2550321,80137 Napoli NA Italia,Naples Piazza Cavour Station,2019-06-11T12:38:22.299Z,2019-06-11T12:52:08.823Z,2019-06-11,meh
40.8453322,14.2604631,"Università degli Studi di Napoli Via Nuova Marina, 59 80133 Napoli NA Italia",Università Degli Studi di Napoli L'Orientale - Palazzo del Mediterraneo,2019-06-12T07:41:12.104Z,2019-06-12T07:59:57.789Z,2019-06-12,meh
40.8421322,14.2559794,"Via Alcide de Gasperi, 45 80133 Napoli NA Italia",Azienda per il Diritto allo Studio Universitario della Regione Campania - Sede di Napoli,2019-06-12T09:38:37.690Z,2019-06-12T09:48:04.370Z,2019-06-12,meh
40.8432215,14.2489647,"Via Armando Diaz, 180/B, I-80134 Napoli, Italia","Via Armando Diaz, 180/B",2019-06-12T09:56:13.689Z,2019-06-12T11:21:17.216Z,2019-06-12,meh
40.8402713,14.2480532,"Vico Tre Re a Toledo, 6 80132 Napoli NA Italia",Ristorante Pizzeria 7 Soldi,2019-06-12T11:25:20.147Z,2019-06-12T12:25:11.715Z,2019-06-12,meh
40.845492,14.2578058,"Corso Umberto I, 40 80138 Napoli NA Italia",University of Naples Federico II,2019-06-12T16:59:44.309Z,2019-06-12T17:07:25.678Z,2019-06-12,meh
40.863543,14.2555124,"Salita Moiariello, 16 80131 Napoli NA Italia",INAF Capodimonte Astronomical Observatory,2019-06-14T18:45:01.439Z,2019-06-14T21:28:00.952Z,2019-06-14,good
40.8358256,14.2485831,Piazza del Plebiscito 80132 Napoli NA Italia,Piazza del Plebiscito,2019-06-15T20:56:12.036Z,2019-06-15T23:38:12.718Z,2019-06-15,good
40.8220425,14.3332958,"Via S. Cristoforo, 2 80055 Portici NA Italia",Supermercato Pellicano,2019-06-17T06:15:00.809Z,2019-06-17T06:23:39.865Z,2019-06-17,good
40.9398606,14.3728586,80011 Acerra NA Italia,Acerra,2019-06-17T07:09:39.531Z,2019-06-17T07:25:22.774Z,2019-06-17,good
40.9482901,14.3818251,"Via Torquato Tasso, 1 80011 Acerra NA Italia",State Police - Commissioner of Acerra,2019-06-17T07:40:52.874Z,2019-06-17T08:11:54.398Z,2019-06-17,good
40.9398606,14.3728586,80011 Acerra NA Italia,Acerra,2019-06-17T08:30:00.257Z,2019-06-17T09:00:28.004Z,2019-06-17,good
40.8312592,14.244409,"Via Chiatamone, 61/62 80121 Napoli NA Italia","University of Naples ""L'Orientale""",2019-06-20T10:08:02Z,2019-06-20T10:25:27.360Z,2019-06-20,good
40.8416118,14.2489927,"Via Ponte di Tappia, 92 80133 Napoli NA Italia",Mandara,2019-06-20T10:47:36.920Z,2019-06-20T11:07:55.379Z,2019-06-20,good
40.8193565,14.166708,80124 Napoli NA Italia,Bagnoli - Agnano Terme,2019-06-22T18:07:34.456Z,2019-06-22T18:39:26.713Z,2019-06-22,rad
40.8211901,14.1613961,"ex Base Nato di Bagnoli Viale della Liberazione, 1 80124 Bagnoli NA Italia",Piscina NaNa,2019-06-22T18:59:09.619Z,2019-06-22T21:42:43.101Z,2019-06-22,rad
40.8494937,14.2359536,"Viale Michelangelo, 82 80129 Napoli NA Italia",Fabiolotto,2019-06-22T22:14:23.719Z,2019-06-22T22:33:18.506Z,2019-06-22,rad
40.8881981,14.3717696,VIA VECCHIULLO NCM 80013 Casalnuovo di Napoli NA Italia,TONY FRIP,2019-06-23T14:57:28Z,2019-06-23T18:04:53.315Z,2019-06-23,meh
40.8423793,14.2494379,"Via Armando Diaz, 20 80134 Napoli NA Italia",Caffè Bistrot Toledo,2019-06-25T16:52:21.337Z,2019-06-25T17:30:14.296Z,2019-06-25,rad
40.8432024,14.2221295,"Via Francesco Cilea, 104 80127 Napoli NA Italia",Puok Burger Store (VOL.1 Vomero),2019-06-25T18:00:53.365Z,2019-06-25T19:12:18.802Z,2019-06-25,rad
40.8502217,14.2231834,"Via Simone Martini, 47 80128 Napoli NA Italia",Bar Satira 3 di Visconti Raffaele,2019-06-25T19:20:24.437Z,2019-06-25T22:42:01.924Z,2019-06-25,rad
40.8508397,14.2598529,Via Duomo Napoli NA Italia,Via Duomo,2019-06-27T06:39:03.266Z,2019-06-27T11:08:40.439Z,2019-06-27,rad
40.8423793,14.2494379,"Via Armando Diaz, 20 80134 Napoli NA Italia",Caffè Bistrot Toledo,2019-06-27T17:32:54.297Z,2019-06-27T18:30:58.039Z,2019-06-27,rad
40.8847493,14.289243,Viale F. Ruffo di Calabria 80144 Napoli NA Italia,Naples International Airport,2019-06-28T06:31:24.243Z,2019-06-28T08:32:10.642Z,2019-06-28,rad
51.1536621,-0.1820629,Horley Gatwick RH6 0NP UK,Gatwick Airport,2019-06-28T11:48:27.795Z,2019-06-28T12:18:45.288Z,2019-06-28,rad
50.832942,-0.1296127,9 Park Crescent Pl Brighton BN2 3HF UK,9 Park Crescent Pl,2019-06-28T13:21:08.003Z,2019-06-28T14:01:40.274Z,2019-06-28,rad
50.821627,-0.136272,7 Old Steine Kemptown Brighton BN1 1EJ UK,Brighton Language College,2019-06-28T14:08:17.154Z,2019-06-28T15:01:50.173Z,2019-06-28,rad
50.8329681,-0.1298493,20 Park Crescent Pl Brighton BN2 3HG UK,20 Park Crescent Pl,2019-06-28T15:10:54.947Z,2019-06-28T15:51:51.842Z,2019-06-28,rad
50.8229673,-0.1457714,Russell Pl Brighton BN1 2RG UK,Churchill Square Shopping Centre,2019-06-28T16:22:42.923Z,2019-06-28T16:34:09.931Z,2019-06-28,rad
50.8242594,-0.1362747,12a Marlborough Pl Brighton BN1 1WN UK,Victoria Gardens,2019-06-28T18:28:49.578Z,2019-06-28T19:03:24.730Z,2019-06-28,rad
50.8261111,-0.1391531,5 5A Upper Gardner St Brighton BN1 4AN UK,North Laine Bazaar,2019-06-28T19:07:27.524Z,2019-06-28T20:15:03.667Z,2019-06-28,rad
50.82471,-0.1398326,8 Gardner St Brighton BN1 1UP UK,Red Eye Vape Store,2019-06-28T20:19:08.897Z,2019-06-28T20:24:47.109Z,2019-06-28,rad
50.821079,-0.1452933,Kingswest West St Brighton BN1 2RE UK,ODEON Brighton,2019-06-28T20:30:57.416Z,2019-06-28T20:39:00.199Z,2019-06-28,rad
50.8261111,-0.1391531,5 5A Upper Gardner St Brighton BN1 4AN UK,North Laine Bazaar,2019-06-28T20:49:14.361Z,2019-06-28T20:55:18.337Z,2019-06-28,rad
50.8329681,-0.1298493,20 Park Crescent Pl Brighton BN2 3HG UK,20 Park Crescent Pl,2019-06-28T21:14:01.002Z,2019-06-29T10:01:40.626Z,2019-06-28,rad
50.8310776,-0.1332521,Union Rd Brighton BN1 4ZN UK,The Level,2019-06-29T10:06:55.009Z,2019-06-29T10:12:09.204Z,2019-06-29,rad
50.8188731,-0.1352936,Brighton Beach 4 Madeira Dr Brighton BN2 1ET UK,Brighton Beach,2019-06-29T10:30:20.652Z,2019-06-29T11:18:32.656Z,2019-06-29,rad
50.8199559,-0.1353823,Marine Parade Kemptown Brighton BN2 1TB UK,Sea Life Centre (Stop K),2019-06-29T11:20:34.080Z,2019-06-29T11:28:46.839Z,2019-06-29,rad
50.7910565,0.0179716,73A Cornwall Ave Peacehaven BN10 8SE UK,73A Cornwall Ave,2019-06-29T12:04:29.715Z,2019-06-29T12:30:20.327Z,2019-06-29,rad
50.7908441,0.0006754,Burger & Bird 205 S Coast Rd Peacehaven BN10 8LA UK,Burger & Bird,2019-06-29T12:35:37.928Z,2019-06-29T14:34:33.422Z,2019-06-29,rad
50.7910565,0.0179716,73A Cornwall Ave Peacehaven BN10 8SE UK,73A Cornwall Ave,2019-06-29T14:37:43.610Z,2019-06-29T15:25:08.729Z,2019-06-29,rad
50.7878517,0.0182267,25 S Coast Rd Peacehaven BN10 8SZ UK,25 S Coast Rd,2019-06-29T15:27:10.129Z,2019-06-29T15:40:15.460Z,2019-06-29,rad
50.8223517,-0.1376855,4/5 Pavilion Buildings Brighton BN1 1EE UK,Royal Pavilion,2019-06-29T16:12:09.035Z,2019-06-29T16:18:11.615Z,2019-06-29,rad
50.8296224,-0.1362604,1-4 London Rd Brighton BN1 4JA UK,ALDI,2019-06-29T16:47:41.347Z,2019-06-29T17:11:11.626Z,2019-06-29,rad
50.8329681,-0.1298493,20 Park Crescent Pl Brighton BN2 3HG UK,20 Park Crescent Pl,2019-06-29T17:19:34.383Z,2019-06-29T17:29:46.195Z,2019-06-29,rad
50.8364491,-0.1530446,197 Dyke Rd Hove BN1 5AS UK,Dyke Road Park,2019-06-29T18:00:05.472Z,2019-06-29T19:59:21.853Z,2019-06-29,rad
40.846386,14.2549933,"Via S. Giovanni Maggiore Pignatelli, 17 80134 Napoli NA Italia",Vida,2019-03-02T21:43:01.844Z,2019-03-02T22:44:25.403Z,2019-03-02,good
40.8337256,14.2511452,"Via Cesario Console, 3/Bis 80133 Napoli NA Italia",Circolo Ufficiali Marina Militare Napoli,2019-03-03T11:03:17.036Z,2019-03-03T16:32:07Z,2019-03-03,good
40.8432215,14.2489647,"Via Armando Diaz, 180/B, I-80134 Napoli, Italia","Via Armando Diaz, 180/B",2019-03-03T19:00:34.675Z,2019-03-04T08:51:50.330Z,2019-03-03,good
40.8453322,14.2604631,"Università degli Studi di Napoli Via Nuova Marina, 59 80133 Napoli NA Italia",Università Degli Studi di Napoli L'Orientale - Palazzo del Mediterraneo,2019-03-04T09:27:00.171Z,2019-03-04T12:23:45Z,2019-03-04,meh
40.8432215,14.2489647,"Via Armando Diaz, 180/B, I-80134 Napoli, Italia","Via Armando Diaz, 180/B",2019-03-04T12:38:43.425Z,2019-03-06T14:29:16.204Z,2019-03-04,meh
40.8470936,14.2517471,"Piazza del Gesù Nuovo, 2 80134 Napoli NA Italia",Gesù Nuovo Square,2019-03-06T14:37:21.606Z,2019-03-06T14:43:27.061Z,2019-03-06,meh
40.8431944,14.2488136,"Via Toledo, 343 80134 Napoli NA Italia",Pull & Bear,2019-03-06T14:55:41.071Z,2019-03-06T15:24:16.719Z,2019-03-06,meh
40.8327103,14.2493229,"Via Santa Lucia, 59 80132 Napoli NA Italia",Supero' Srl,2019-03-06T15:49:48.195Z,2019-03-06T15:56:10.064Z,2019-03-06,meh
40.8394622,14.248542,"Via Toledo, 194 80132 Napoli NA Italia",Toledo194,2019-03-06T16:30:19.787Z,2019-03-06T16:34:52.515Z,2019-03-06,meh
40.8453322,14.2604631,"Università degli Studi di Napoli Via Nuova Marina, 59 80133 Napoli NA Italia",Università Degli Studi di Napoli L'Orientale - Palazzo del Mediterraneo,2019-03-07T13:36:23.708Z,2019-03-07T15:22:01.969Z,2019-03-07,meh
40.8314615,14.2412501,Piazza Vittoria 80122 Napoli NA Italia,Monumento ai Caduti del Mare,2019-03-09T15:31:47.331Z,2019-03-09T16:06:50Z,2019-03-09,meh
40.8384445,14.2495911,"Via San Carlo, 15 80132 Napoli NA Italia",Galleria Umberto I,2019-03-09T16:37:20.696Z,2019-03-09T16:52:43.455Z,2019-03-09,meh
40.8449762,14.258192,"Via Luigi Palmieri, 9 80133 Napoli NA Italia",Jolly Cart Di Abbruzzese Rosario,2019-03-11T09:25:23.625Z,2019-03-11T09:31:50.137Z,2019-03-11,meh
40.8410548,14.2517785,"Via Incoronata, 14/16 80133 Napoli NA Italia",Sole 365,2019-03-11T15:55:59.049Z,2019-03-11T16:27:28.502Z,2019-03-11,meh
40.8449762,14.258192,"Via Luigi Palmieri, 9 80133 Napoli NA Italia",Jolly Cart Di Abbruzzese Rosario,2019-03-12T09:37:25.869Z,2019-03-12T09:43:31.573Z,2019-03-12,meh
40.8432215,14.2489647,"Via Armando Diaz, 180/B, I-80134 Napoli, Italia","Via Armando Diaz, 180/B",2019-03-12T09:54:06.824Z,2019-03-15T19:19:17.962Z,2019-03-12,meh
40.8208496,14.1778221,"Via Corrado Barbagallo, 115 80125 Napoli NA Italia",Teatro Palapartenope,2019-03-15T19:46:20.191Z,2019-03-15T19:52:26.024Z,2019-03-15,good
40.8208496,14.1778221,"Via Corrado Barbagallo, 115 80125 Napoli NA Italia",Teatro Palapartenope,2019-03-15T21:40:46.504Z,2019-03-15T22:09:20.745Z,2019-03-15,good
40.8400833,14.2512739,P.za Municipio 80133 Napoli NA Italia,Fountain of Neptune,2019-03-16T15:01:13.989Z,2019-03-16T17:21:00.606Z,2019-03-16,good
40.8432215,14.2489647,"Via Armando Diaz, 180/B, I-80134 Napoli, Italia","Via Armando Diaz, 180/B",2019-03-16T17:29:13.891Z,2019-03-16T18:34:10.222Z,2019-03-16,good
40.8929317,14.2398455,80145 Napoli NA Italia,Piscinola,2019-03-16T19:54:55.735Z,2019-03-16T20:06:34.655Z,2019-03-16,good
40.8981985,14.1987656,"Corso Europa, 81 80016 Marano di Napoli NA Italia",Hamburgeria La Boutique della Carne V.P.,2019-03-16T20:31:11.231Z,2019-03-16T22:05:49.902Z,2019-03-16,good
40.8504043,14.2324572,80129 Napoli NA Italia,Escobar Cafè,2019-03-16T22:22:06.946Z,2019-03-16T22:44:29.543Z,2019-03-16,good
40.8553252,14.2550321,80137 Napoli NA Italia,Naples Piazza Cavour Station,2019-03-17T08:52:08.076Z,2019-03-17T08:56:41.748Z,2019-03-17,good
40.8995061,14.2587853,"Via Comunale Limitone d'Arzano, 43 80144 Napoli NA Italia",Associazione Sportiva Fondazione Andrea Capasso,2019-03-17T09:43:23.905Z,2019-03-17T11:45:32.167Z,2019-03-17,good
40.9761854,13.9917393,"Via Domiziana, 967 81030 Castel Volturno CE Italia",Centro Commerciale Giolì,2019-03-17T12:05:37Z,2019-03-17T16:58:08.929Z,2019-03-17,good
40.850666,14.2332588,"Piazza dell'Immacolata, 7 80127 Napoli NA Italia",Delight Caffè,2019-03-17T17:37:06.278Z,2019-03-17T17:47:16.648Z,2019-03-17,good
40.8391181,14.2507435,"Via Santa Brigida, 34 80132 Napoli NA Italia",Zoomiguana Il Megastore Degli Animali,2019-03-18T17:49:23.555Z,2019-03-18T18:14:34.630Z,2019-03-18,good
40.8423793,14.2494379,"Via Armando Diaz, 20 80134 Napoli NA Italia",Caffè Bistrot Toledo,2019-03-18T18:20:15Z,2019-03-18T19:20:37.583Z,2019-03-18,good
40.8529221,14.2723433,P.za Giuseppe Garibaldi 80142 Napoli NA Italia,Napoli Centrale,2019-03-22T19:22:33.854Z,2019-03-22T19:30:36.958Z,2019-03-22,good
40.8578108,14.29013,"Via Bussola, 5 80143 Napoli NA Italia",Parrocchia Sacra Famiglia Dei Padri Giuseppini,2019-03-22T19:48:49.849Z,2019-03-22T21:35:45.535Z,2019-03-22,good
40.8456076,14.2558934,Rampe S. Giovanni Maggiore 80134 Napoli NA Italia,St. John the Greater Basilica,2019-03-26T10:42:59.500Z,2019-03-26T12:01:35.559Z,2019-03-26,meh
40.8449121,14.2578851,"Corso Umberto I, 55 80132 Napoli NA Italia",Hotel Naples,2019-03-26T12:03:36.585Z,2019-03-26T14:52:57.978Z,2019-03-26,meh
40.8312592,14.244409,"Via Chiatamone, 61/62 80121 Napoli NA Italia","University of Naples ""L'Orientale""",2019-03-27T08:29:12.359Z,2019-03-27T11:25:13.622Z,2019-03-27,meh
40.8283157,14.2476044,"Via Eldorado, 3 80132 Napoli NA Italia",Ovo Castle,2019-03-27T11:39:37.579Z,2019-03-27T12:06:26.466Z,2019-03-27,meh
40.8453322,14.2604631,"Università degli Studi di Napoli Via Nuova Marina, 59 80133 Napoli NA Italia",Università Degli Studi di Napoli L'Orientale - Palazzo del Mediterraneo,2019-03-29T08:46:43.474Z,2019-03-29T09:26:31.580Z,2019-03-29,meh
40.8421838,14.2557741,"Via Alcide de Gasperi, 45 80133 Napoli NA Italia",ILAS - Istituto Superiore di Comunicazione - ATC Adobe / ATC Autodesk,2019-03-29T09:36:46.329Z,2019-03-29T09:45:21.504Z,2019-03-29,meh
40.7993019,14.1805091,Viale Virgilio 80123 Napoli NA Italia,Parco Virgiliano,2019-03-30T15:41:55Z,2019-03-30T15:55:25.971Z,2019-03-30,good
40.8432215,14.2489647,"Via Armando Diaz, 180/B, I-80134 Napoli, Italia","Via Armando Diaz, 180/B",2019-03-30T18:06:36.750Z,2019-03-30T18:40:35.104Z,2019-03-30,good
40.849502,14.232609,"Via Guglielmo Sagrera, 11/19 80129 Napoli NA Italia",Viktoria Platz,2019-03-30T19:11:18.157Z,2019-03-30T20:10:34.675Z,2019-03-30,good
40.8504043,14.2324572,80129 Napoli NA Italia,Escobar Cafè,2019-03-30T20:16:40.382Z,2019-03-30T21:16:45.118Z,2019-03-30,good
40.8980457,14.1697713,"Via S. Rocco, 238 80016 Marano di Napoli NA Italia",Bocadito soul food,2019-03-30T21:38:29.975Z,2019-03-30T23:26:15.385Z,2019-03-30,good
40.9169525,14.2081456,"Via Pietro Nenni, 4 80018 Mugnano di Napoli NA Italia",Gran Caffè Le Plaisir,2019-03-30T23:40:54.792Z,2019-03-30T23:58:54.841Z,2019-03-30,good
40.8504043,14.2324572,80129 Napoli NA Italia,Escobar Cafè,2019-03-31T00:15:16.583Z,2019-03-31T01:51:51.369Z,2019-03-31,good
40.8504043,14.2324572,80129 Napoli NA Italia,Escobar Cafè,2019-05-01T18:38:13.449Z,2019-05-01T20:17:09.160Z,2019-05-01,good
40.8230935,14.1198336,"Via Gabriele Santilli, 5 80078 Pozzuoli NA Italia",13 Gradi,2019-05-01T20:36:48.377Z,2019-05-01T22:28:36.377Z,2019-05-01,good
40.8250545,14.1196204,"Lungomare C. Colombo, 17 80078 Pozzuoli NA Italia",Porto di Pozzuoli,2019-05-01T22:32:39.655Z,2019-05-01T23:05:42.260Z,2019-05-01,good
40.8429201,14.2523665,"Via Medina, 75 80133 Napoli NA Italia",Police headquarters in Naples,2019-05-04T15:09:13.714Z,2019-05-04T15:15:23.159Z,2019-05-04,good
40.8627305,14.2705445,"Via Arenaccia, 154 80141 Napoli NA Italia",Decathlon Napoli Arenaccia,2019-05-04T15:39:10.400Z,2019-05-04T17:24:04.429Z,2019-05-04,good
40.8591582,14.2708251,"Via Arenaccia, 64 - 66 - 68 80141 Napoli NA Italia",Paggio Toys,2019-05-04T17:28:51.505Z,2019-05-04T17:49:45.722Z,2019-05-04,good
40.8642523,14.2678177,"Piazza Carlo III, 5 80137 Napoli NA Italia","Piazza Carlo III, 5",2019-05-04T17:57:57.400Z,2019-05-04T18:07:16.771Z,2019-05-04,good
40.8454927,14.2507609,"Via Sant'Anna dei Lombardi, 34 80134 Napoli NA Italia",BAGAGLI Eddybags,2019-05-05T14:37:23Z,2019-05-05T14:51:31Z,2019-05-05,good
41.0047146,14.3288503,"Località Aurno, 87 81025 Marcianise CE Italia",Shopping Complex Campania,2019-05-05T15:31:24.070Z,2019-05-05T19:09:46.270Z,2019-05-05,good
40.9280545,14.3216509,"5ꞌ Traversa Arena, 20 80021 Afragola NA Italia","5ꞌ Traversa Arena, 20",2019-05-05T19:55:41.760Z,2019-05-05T20:32:34.522Z,2019-05-05,good
40.8312592,14.244409,"Via Chiatamone, 61/62 80121 Napoli NA Italia","University of Naples ""L'Orientale""",2019-05-06T11:51:07.504Z,2019-05-06T12:08:30.071Z,2019-05-06,meh
40.8365335,14.2481451,"Piazza del Plebiscito, 22 80132 Napoli NA Italia",Territorial Office of the Government of Naples,2019-05-09T17:50:44.736Z,2019-05-09T18:04:47.078Z,2019-05-09,good
40.8360092,14.2422285,"Via Chiaia, 139 80132 Napoli NA Italia","Palazzo Cellammare, Naples",2019-05-09T18:08:49.910Z,2019-05-09T20:21:02.067Z,2019-05-09,good
40.8358688,14.2451403,"Via Chiaia, 83 80021 Napoli NA Italia",Paisà,2019-05-09T20:23:02.551Z,2019-05-09T20:32:12.117Z,2019-05-09,good
40.8431646,14.2221863,"Via Francesco Cilea, 104 80127 Napoli NA Italia",Puok Burger Store (VOL.1 Vomero),2019-05-10T18:40:53.724Z,2019-05-10T19:20:34.069Z,2019-05-10,good
40.8502217,14.2231834,"Via Simone Martini, 47 80128 Napoli NA Italia",Bar Satira 3 di Visconti Raffaele,2019-05-10T19:31:53.090Z,2019-05-10T22:47:06Z,2019-05-10,good
40.845492,14.2578058,"Corso Umberto I, 40 80138 Napoli NA Italia",University of Naples Federico II,2019-05-11T15:51:24.456Z,2019-05-11T15:59:23.263Z,2019-05-11,good
40.8559232,14.2463808,"Via Materdei, 27/28 80136 Napoli NA Italy",Starita,2019-05-11T19:24:58.492Z,2019-05-11T21:44:20.052Z,2019-05-11,good
40.8462673,14.2557552,"Via Enrico De Marinis, 10 80134 Napoli NA Italia",American Bar Pepiton,2019-05-11T22:04:34.591Z,2019-05-11T22:36:08.156Z,2019-05-11,good
40.8459443,14.2557766,"Via S. Giovanni Maggiore Pignatelli, 27 80134 Napoli NA Italia",Kestè,2019-05-11T22:38:09.970Z,2019-05-11T23:01:00.549Z,2019-05-11,good
40.8440885,14.2559159,80133 Napoli NA Italia,P.Zza Bovio,2019-05-11T23:05:02.911Z,2019-05-11T23:10:19.957Z,2019-05-11,good
40.8243343,14.1885876,"Viale John Fitzgerald Kennedy, 54 80125 Napoli NA Italia",Mostra d'Oltremare,2019-05-12T14:37:35.081Z,2019-05-12T16:57:12.978Z,2019-05-12,good
40.8389391,14.2476777,80132 Napoli NA Italia,Augusteo,2019-05-14T14:25:59.385Z,2019-05-14T14:32:09.847Z,2019-05-14,good
40.8422639,14.2487187,"Via Toledo, 331 80134 Napoli NA Italia",Kasanova,2019-05-14T14:32:09.847Z,2019-05-14T14:47:37.355Z,2019-05-14,good
40.8391181,14.2507435,"Via Santa Brigida, 34 80132 Napoli NA Italia",Zoomiguana Il Megastore Degli Animali,2019-05-14T14:53:42.188Z,2019-05-14T15:05:29.775Z,2019-05-14,good
40.835017,14.2422388,"Via S. Caterina, 74/75 80121 Napoli NA Italia",Trucchi S.R.L.,2019-05-14T15:22:57.212Z,2019-05-14T15:29:10.091Z,2019-05-14,good
40.8365267,14.2463436,"Via Chiaia, 212 80121 Napoli NA Italia",SCOUT,2019-05-14T15:31:12.126Z,2019-05-14T16:08:18.724Z,2019-05-14,good
40.8432215,14.2489647,"Via Armando Diaz, 180/B, I-80134 Napoli, Italia","Via Armando Diaz, 180/B",2019-05-14T16:16:30.219Z,2019-05-17T19:45:52.144Z,2019-05-14,good
40.849502,14.232609,"Via Guglielmo Sagrera, 11/19 80129 Napoli NA Italia",Viktoria Platz,2019-05-17T20:18:39.230Z,2019-05-17T20:25:32.638Z,2019-05-17,good
40.8363385,14.1913506,"Via Vicinale Cupa Cintia, 249/251 80126 Napoli NA Italia",Complesso Commerciale Azzurro,2019-05-17T20:37:40Z,2019-05-17T20:47:08.048Z,2019-05-17,good
40.823435,14.183897,"Viale John Fitzgerald Kennedy, 12 80125 Napoli NA Italia",Bowling Oltremare,2019-05-17T20:49:09.114Z,2019-05-17T23:00:44.915Z,2019-05-17,good
40.8432235,14.2294126,"Via Giovanni Merliani, 38 80127 Napoli NA Italia",McDonald's,2019-05-18T18:59:14.838Z,2019-05-18T19:33:46.918Z,2019-05-18,good
40.8489606,14.232319,"Via Mario Fiore, 6 80129 Napoli NA Italia",A.O.R.N. Santobono-Pausilipon,2019-05-18T19:44:02.351Z,2019-05-18T21:17:01.796Z,2019-05-18,good
40.8504043,14.2324572,80129 Napoli NA Italia,Escobar Cafè,2019-05-18T21:19:08.135Z,2019-05-18T23:12:46Z,2019-05-18,good
40.8425438,14.2335394,"Via Renato Lordi, 10 80127 Napoli NA Italia",Piazza Fuga,2019-05-18T23:20:42.641Z,2019-05-18T23:30:34.625Z,2019-05-18,good
40.8591582,14.2708251,"Via Arenaccia, 64 - 66 - 68 80141 Napoli NA Italia",Paggio Toys,2019-05-19T14:34:33.405Z,2019-05-19T15:40:46.017Z,2019-05-19,good
40.7873675,14.4063903,"Via Monticelli, 1 80059 Torre del Greco NA Italia","Via Monticelli, 1",2019-05-19T16:12:42Z,2019-05-19T17:49:13.548Z,2019-05-19,good
40.8423793,14.2494379,"Via Armando Diaz, 20 80134 Napoli NA Italia",Caffè Bistrot Toledo,2019-05-20T10:37:31.525Z,2019-05-20T12:07:34.686Z,2019-05-20,good
40.8488931,14.2498488,80135 Napoli NA Italia,Dante,2019-05-20T12:17:15.138Z,2019-05-20T12:27:21.083Z,2019-05-20,good
40.8414236,14.2510298,"Via Miguel Cervantes de Saavedra, 66 80133 Napoli NA Italia",'O Macarò,2019-05-21T10:56:47.699Z,2019-05-21T11:11:04.591Z,2019-05-21,good
40.9398606,14.3728586,80011 Acerra NA Italia,Acerra,2019-05-22T06:03:09.299Z,2019-05-22T06:11:57.988Z,2019-05-22,meh
40.9482901,14.3818251,"Via Torquato Tasso, 1 80011 Acerra NA Italia",State Police - Commissioner of Acerra,2019-05-22T06:31:17.441Z,2019-05-22T08:22:37.190Z,2019-05-22,meh
40.9398606,14.3728586,80011 Acerra NA Italia,Acerra,2019-05-22T08:40:17.673Z,2019-05-22T08:57:56.502Z,2019-05-22,meh
40.9430763,14.3725644,"Piazza del Duomo, 7 80011 Acerra NA Italia",JOB CAFE,2019-05-22T09:03:20.420Z,2019-05-22T09:18:26.605Z,2019-05-22,meh
40.9398606,14.3728586,80011 Acerra NA Italia,Acerra,2019-05-22T09:22:28.650Z,2019-05-22T10:58:20.914Z,2019-05-22,meh
40.8506313,14.2601124,"Via Duomo, 219-223 80138 Napoli NA Italia",Palace S. Maria Porta Coeli,2019-05-23T09:42:04.285Z,2019-05-23T09:57:07.393Z,2019-05-23,meh
40.848961,14.259027,"Via del Grande Archivio, 8 80100 Napoli NA Italia",Hotel Palazzo Decumani,2019-05-24T11:01:20.230Z,2019-05-24T11:32:14.178Z,2019-05-24,good
40.8476983,14.2555403,"Via Mezzocannone, 113 80134 Napoli NA Italia",Lucy May,2019-05-24T11:36:23.966Z,2019-05-24T11:52:34.548Z,2019-05-24,good
40.8487754,14.2595163,"Via del Grande Archivio, 24 80138 Napoli NA Italia",La Figlia del Presidente,2019-05-24T11:59:48.541Z,2019-05-24T13:39:03.992Z,2019-05-24,good
40.8421069,14.2489531,"Via Toledo, 129/132 80100 Napoli NA Italy",Disney Store,2019-05-24T14:01:25.022Z,2019-05-24T14:11:59.903Z,2019-05-24,good
40.8358256,14.2485831,Piazza del Plebiscito 80132 Napoli NA Italia,Piazza del Plebiscito,2019-05-24T14:20:13.668Z,2019-05-24T15:14:25Z,2019-05-24,good
40.846386,14.2549933,"Via S. Giovanni Maggiore Pignatelli, 17 80134 Napoli NA Italia",Vida,2019-05-24T21:16:06.369Z,2019-05-25T00:25:34.258Z,2019-05-24,good
40.8432091,14.2556386,80133 Napoli NA Italia,Università,2019-05-25T00:31:43.207Z,2019-05-25T00:37:48.559Z,2019-05-25,meh
40.8291227,14.2223229,"Via Francesco Caracciolo, 12 80122 Napoli NA Italia",Vesuvius Srl,2019-05-25T00:51:53.301Z,2019-05-25T01:49:22.691Z,2019-05-25,meh
40.8319433,14.228318,Viale Anton Dohrn 80122 Napoli NA Italia,Naples Tennis Club,2019-05-25T02:00:02.470Z,2019-05-25T02:06:06.195Z,2019-05-25,meh
40.847603,14.2555601,"Via Mezzocannone, 109 80134 Napoli NA Italia",Bar Astra,2019-05-25T20:50:36.877Z,2019-05-25T23:47:41.539Z,2019-05-25,meh
40.8474843,14.2455554,"Piazza Montesanto, 25 80135 Napoli NA Italia",Istituto Paritario Bianchi Fondazione Grimaldi Onlus,2019-05-28T07:58:42.358Z,2019-05-28T08:06:57.007Z,2019-05-28,meh
40.8225465,14.1943888,80124 Napoli NA Italia,Naples Campi Flegrei,2019-05-28T08:22:30.142Z,2019-05-28T08:54:50.759Z,2019-05-28,meh
40.8508397,14.2598529,Via Duomo Napoli NA Italia,Via Duomo,2019-05-30T07:40:24.985Z,2019-05-30T07:46:28.655Z,2019-05-30,good
40.8312592,14.244409,"Via Chiatamone, 61/62 80121 Napoli NA Italia","University of Naples ""L'Orientale""",2019-05-31T07:09:24.139Z,2019-05-31T07:44:39.239Z,2019-05-31,meh
40.8929317,14.2398455,80145 Napoli NA Italia,Piscinola,2019-11-01T12:42:26Z,2019-11-01T12:48:51.458Z,2019-11-01,good
40.8356758,14.2443223,"Via Chiaia, 103 80121 Napoli NA Italia",Parrucchiere Paolo Parisi Hair&Make-Up Napoli,2019-11-04T14:58:06.333Z,2019-11-04T16:11:02.790Z,2019-11-04,good
40.8529221,14.2723433,P.za Giuseppe Garibaldi 80142 Napoli NA Italia,Napoli Centrale,2019-11-06T09:21:28.718Z,2019-11-06T10:07:56.234Z,2019-11-06,rad
45.4870123,9.205479,"Piazza Duca d'Aosta, 1 20124 Milano MI Italia",Milano Centrale Railway Station,2019-11-06T15:30:17.674Z,2019-11-06T16:04:11Z,2019-11-06,rad
45.4803436,9.1988243,20124 Milano MI Italia,Repubblica,2019-11-06T16:08:32Z,2019-11-06T16:17:13.464Z,2019-11-06,rad
45.4640976,9.1919265,P.za del Duomo 20122 Milano MI Italia,Duomo di Milano,2019-11-06T16:51:24Z,2019-11-06T18:39:08.487Z,2019-11-06,rad
45.4870123,9.205479,"Piazza Duca d'Aosta, 1 20124 Milano MI Italia",Milano Centrale Railway Station,2019-11-06T18:49:19.437Z,2019-11-06T20:13:18.160Z,2019-11-06,rad
45.398037,9.171904,"Via Franchi Maggi, 18A 20089 Rozzano MI Italia","Via Franchi Maggi, 18A",2019-11-06T20:49:00.491Z,2019-11-07T06:31:36.330Z,2019-11-06,rad
45.4684388,9.1755343,Piazzale Luigi Cadorna 20123 Milano MI Italia,Stazione Cadorna,2019-11-07T07:06:13.344Z,2019-11-07T07:28:52.048Z,2019-11-07,rad
45.6300625,8.7255307,21010 Ferno VA Italia,Malpensa Airport,2019-11-07T08:28:26.147Z,2019-11-07T10:34:13.080Z,2019-11-07,rad
55.950785,-3.3614532,Edinburgh EH12 9DN UK,Edinburgh Airport,2019-11-07T13:00:54.133Z,2019-11-07T16:10:27.743Z,2019-11-07,rad
63.9786029,-22.635036,235 KEFLAVÍKURFLUGVÖLLUR 235 Keflavík Ísland,Keflavík International Airport,2019-11-07T19:04:56.408Z,2019-11-07T19:55:51.917Z,2019-11-07,rad
63.9996562,-22.5764929,Iðavellir 14 230 Keflavík Ísland,Nettó,2019-11-07T20:06:42.149Z,2019-11-07T20:24:07Z,2019-11-07,rad
65.7058022,-21.6709091,Hafnarbraut 14 Hólmavík Ísland,LákiTours,2019-11-08T11:25:57.620Z,2019-11-08T12:19:48.056Z,2019-11-08,rad
65.7008202,-21.685674,Höfðatún 4 510 Hólmavík Ísland,Vínbúðin,2019-11-08T12:19:48.056Z,2019-11-08T12:59:23Z,2019-11-08,rad
65.2464433,-21.805606,Sælingsdalsvegur Iceland Ísland,Guðrúnarlaug hot spring,2019-11-08T15:17:21Z,2019-11-08T17:00:34.162Z,2019-11-08,rad
65.2093152,-21.0941135,6W54+P9C Borðeyri Ísland,Tangahús Guesthouse,2019-11-08T17:53:31Z,2019-11-09T09:25:37.056Z,2019-11-08,rad
64.5413816,-21.9094305,Digranesgötu 6 310 Borgarnes Ísland,Bónus,2019-11-09T10:36:30Z,2019-11-09T10:53:18.078Z,2019-11-09,rad
64.8027417,-23.0803176,Iceland Ísland,Ytri Tunga,2019-11-09T12:07:37Z,2019-11-09T13:19:20Z,2019-11-09,rad
64.7992305,-23.6468194,Q9X3+M7V Hellnar Ísland,Rauðfeldsgjá Gorge,2019-11-09T13:19:20Z,2019-11-09T14:08:18.319Z,2019-11-09,rad
64.7677263,-23.6177211,Q99J+3WR Arnarstapi Ísland,Stone Bridge,2019-11-09T14:42:54Z,2019-11-09T15:13:11.523Z,2019-11-09,rad
64.770348,-23.6188131,Arnarstapavegur Arnarstapi Ísland,Port Arnarstapi,2019-11-09T15:13:11.523Z,2019-11-09T15:28:18.943Z,2019-11-09,rad
64.766426,-23.6303825,Q989+HRH Arnarstapi Ísland,Arnarstapi Center and Snjófell Restaurant,2019-11-09T15:30:20.386Z,2019-11-09T15:45:54.557Z,2019-11-09,rad
65.077894,-22.724013,Stykkishólmur Ísland,Stykkisholmur,2019-11-09T17:09:48Z,2019-11-09T17:45:07.027Z,2019-11-09,rad
64.8927517,-23.7090035,2 355 Brautarholt Ólafsvík Iceland,Náttskjól Homestay,2019-11-09T18:49:20Z,2019-11-09T22:47:44.689Z,2019-11-09,rad
64.8927517,-23.7090035,2 355 Brautarholt Ólafsvík Iceland,Náttskjól Homestay,2019-11-10T00:22:28.987Z,2019-11-10T08:37:45.650Z,2019-11-10,rad
64.9261558,-23.3114014,Iceland,Kirkjufellsfoss,2019-11-10T09:07:34Z,2019-11-10T09:39:50.175Z,2019-11-10,rad
64.9516458,-23.1589793,Snæfellsnesvegur Ísland,Kolgrafarfjördur Viewpoint,2019-11-10T09:58:07Z,2019-11-10T10:06:33.265Z,2019-11-10,rad
64.5413816,-21.9094305,Digranesgötu 6 310 Borgarnes Ísland,Bónus,2019-11-10T11:16:04.609Z,2019-11-10T11:49:15.482Z,2019-11-10,rad
63.4029109,-19.1057773,Kirkjufjara Ísland,Kirkjufjara Beach,2019-11-11T09:58:26Z,2019-11-11T10:44:39.495Z,2019-11-11,rad
63.4030983,-19.0421826,Reynisfjara Ísland,Reynisfjara Beach,2019-11-11T11:12:59Z,2019-11-11T11:29:06.130Z,2019-11-11,rad
63.6156232,-19.9885688,Þórsmerkurvegur Ísland,Seljalandsfoss - Waterfall,2019-11-11T13:37:28Z,2019-11-11T13:44:42Z,2019-11-11,rad
63.6208631,-19.9864486,Þórsmerkurvegur Ísland,Gljufrabui,2019-11-11T14:01:52Z,2019-11-11T14:12:06Z,2019-11-11,rad
63.6156232,-19.9885688,Þórsmerkurvegur Ísland,Seljalandsfoss - Waterfall,2019-11-11T14:12:06Z,2019-11-11T14:38:19.163Z,2019-11-11,rad
64.3103719,-20.3023605,冰島 Geysir,Geysir,2019-11-11T17:00:29.446Z,2019-11-11T17:23:59.513Z,2019-11-11,rad
63.9377624,-21.0017968,Austurvegur 5 800 Selfoss Ísland,Krónan,2019-11-11T18:18:16.439Z,2019-11-11T18:48:06.108Z,2019-11-11,rad
63.4590918,-19.3647122,Path to Wrecked DC-3 Plane on Sólheimasandur Iceland,Solheimasandur Plane Wreck (NO PARKING),2019-11-12T11:24:22Z,2019-11-12T12:01:06.709Z,2019-11-12,rad
63.544438,-19.632078,Seljavellir Ísland,Welcome Guesthouse Edinborg,2019-11-12T13:06:04Z,2019-11-12T13:48:09Z,2019-11-12,rad
63.5659865,-19.6074773,H98V+92R Evindarhólar Ísland,Seljavellir Geothermal Pool,2019-11-12T14:41:31.374Z,2019-11-12T15:06:54.857Z,2019-11-12,rad
63.7939181,-18.0399265,QXV6+H28 Kirkjubæjarklaustur Ísland,N1,2019-11-13T09:02:11Z,2019-11-13T09:11:45.867Z,2019-11-13,rad
64.048399,-16.179443,Jökulsárlón 781 Höfn í Hornafirði Ísland,Jökulsárlón Glacier Lagoon Boat Tours and Cafe,2019-11-13T10:46:43.754Z,2019-11-13T12:03:26Z,2019-11-13,rad
64.044334,-16.1776622,Diamond Beach Iceland,Diamond Beach,2019-11-13T12:23:12Z,2019-11-13T12:58:43Z,2019-11-13,rad
64.2549681,-14.9933445,Ísland,Viking Café,2019-11-13T14:12:39Z,2019-11-13T16:25:45.649Z,2019-11-13,rad
64.048259,-21.2234083,Reykjadalur Iceland,Reykjadalur Thermal Bathing Pools,2019-11-14T10:53:56Z,2019-11-14T11:54:15.259Z,2019-11-14,rad
64.139832,-21.888804,Suðurlandsbraut 2 108 Reykjavík Ísland,Hilton Reykjavik Nordica,2019-11-14T13:24:58Z,2019-11-14T13:44:06.692Z,2019-11-14,rad
64.1508078,-21.9440346,Geirsgata 8 101 Reykjavík Ísland,Sægreifinn restaurant,2019-11-14T14:03:27.905Z,2019-11-14T14:48:39.552Z,2019-11-14,rad
64.1475626,-21.9365012,Hafnarstræti 18 101 Reykjavík Ísland,Lækjartorg,2019-11-14T14:48:39.552Z,2019-11-14T16:52:52.724Z,2019-11-14,rad
63.9786029,-22.635036,235 KEFLAVÍKURFLUGVÖLLUR 235 Keflavík Ísland,Keflavík International Airport,2019-11-14T17:51:45.473Z,2019-11-14T21:29:32.219Z,2019-11-14,rad
55.950785,-3.3614532,Edinburgh EH12 9DN UK,Edinburgh Airport,2019-11-15T00:01:11.473Z,2019-11-15T09:27:04.817Z,2019-11-15,rad
45.430057,9.1778475,20142 Milano MI Italia,Abbiategrasso,2019-11-15T13:59:30.422Z,2019-11-15T14:09:34.248Z,2019-11-15,rad
45.398037,9.171904,"Via Franchi Maggi, 18A 20089 Rozzano MI Italia","Via Franchi Maggi, 18A",2019-11-15T14:39:09.896Z,2019-11-16T11:37:37.696Z,2019-11-15,rad
45.4796781,9.2118816,"Via Plinio, 5 20129 Milano MI Italia",Fusho,2019-11-16T12:24:56.067Z,2019-11-16T13:01:07Z,2019-11-16,rad
45.4870123,9.205479,"Piazza Duca d'Aosta, 1 20124 Milano MI Italia",Milano Centrale Railway Station,2019-11-16T13:13:51.872Z,2019-11-16T13:36:37.161Z,2019-11-16,rad
45.4290315,10.9824746,37138 Verona VR Italia,Verona Porta Nuova,2019-11-16T14:52:54.773Z,2019-11-16T15:05:42.167Z,2019-11-16,rad
45.3564287,10.9541773,"Via Savonarola, 11 37060 Beccacivetta-azzano VR Italia","Via Savonarola, 11",2019-11-16T15:27:56.101Z,2019-11-17T10:34:59.106Z,2019-11-16,rad
45.3624006,10.9557154,Viale della Repubblica 37060 Castel D'azzano VR Italia,Superstore Migross,2019-11-17T10:44:55.974Z,2019-11-17T10:53:12.120Z,2019-11-17,rad
45.3564287,10.9541773,"Via Savonarola, 11 37060 Beccacivetta-azzano VR Italia","Via Savonarola, 11",2019-11-17T11:10:58.971Z,2019-11-17T16:17:28.774Z,2019-11-17,rad
45.4787669,11.0218958,"Via Valpantena, 8 37030 Poiano VR Italia",VerdeValle,2019-11-17T16:43:47.983Z,2019-11-17T17:04:29.284Z,2019-11-17,rad
45.3917935,11.014575,"Via Rodigina, 94/b 37135 Cadidavid VR Italia",Flover Garden di Verona - Ca'di David,2019-11-17T17:57:25.452Z,2019-11-17T18:26:16.905Z,2019-11-17,rad
45.3563706,10.9540131,"Via Marconi, 18 37060 Castel D'Azzano VR Italia","Via Marconi, 18",2019-11-17T18:44:26.664Z,2019-11-18T09:30:17.843Z,2019-11-17,rad
45.4419186,10.9984057,"Via Cappello, 23 37121 Verona VR Italia",Juliet's House,2019-11-18T10:35:20.010Z,2019-11-18T11:04:55.396Z,2019-11-18,good
45.4416374,10.9933438,Largo Gonella 1 Portoni Borsari 37121 Verona VR Italia,Bigoi Verona - Pasta Fresca To Go,2019-11-18T11:41:32.052Z,2019-11-18T12:02:01.010Z,2019-11-18,good
45.4390677,10.9999625,"Via Dogana, 2 37121 Verona VR Italia","San Fermo Maggiore, Verona",2019-11-18T13:15:53.091Z,2019-11-18T14:25:02.532Z,2019-11-18,good
45.3564287,10.9541773,"Via Savonarola, 11 37060 Beccacivetta-azzano VR Italia","Via Savonarola, 11",2019-11-18T14:59:42.458Z,2019-11-19T09:55:54.809Z,2019-11-18,good
45.3560997,10.9567964,37060 Castel D'Azzano VR Italia,Beccacivetta,2019-11-19T09:57:55.777Z,2019-11-19T10:15:05.191Z,2019-11-19,rad
45.4290315,10.9824746,37138 Verona VR Italia,Verona Porta Nuova,2019-11-19T10:39:22.421Z,2019-11-19T12:00:47.007Z,2019-11-19,rad
45.4870123,9.205479,"Piazza Duca d'Aosta, 1 20124 Milano MI Italia",Milano Centrale Railway Station,2019-11-19T13:41:05.990Z,2019-11-19T13:47:10.027Z,2019-11-19,rad
45.398037,9.171904,"Via Franchi Maggi, 18A 20089 Rozzano MI Italia","Via Franchi Maggi, 18A",2019-11-19T14:46:47.103Z,2019-11-19T15:30:01.043Z,2019-11-19,rad
45.458383,9.2426496,Via Toscolano Ang Piazza Ovidio 20138 Milano MI Italia,Esselunga,2019-11-19T16:32:31.908Z,2019-11-19T16:53:08.206Z,2019-11-19,rad
45.4522664,9.2519709,"Via Gaudenzio Fantoli, 9 20138 Milano MI Italia",Fabrique,2019-11-19T17:05:21.269Z,2019-11-19T22:17:54.049Z,2019-11-19,rad
45.3979909,9.1718136,"Via Franchi Maggi, 18 20089 Rozzano MI Italia","Via Franchi Maggi, 18",2019-11-19T23:08:44.507Z,2019-11-20T08:24:48Z,2019-11-19,rad
45.4835949,9.1894077,"Piazza Gae Aulenti, 3/Tower A 20154 Milano MI Italy",Porta Nuova Food District,2019-11-20T08:59:06.861Z,2019-11-20T09:28:35.958Z,2019-11-20,good
45.4870123,9.205479,"Piazza Duca d'Aosta, 1 20124 Milano MI Italia",Milano Centrale Railway Station,2019-11-20T09:41:07.009Z,2019-11-20T10:33:59.862Z,2019-11-20,good
40.8529221,14.2723433,P.za Giuseppe Garibaldi 80142 Napoli NA Italia,Napoli Centrale,2019-11-20T15:40:38.278Z,2019-11-20T16:08:43.639Z,2019-11-20,good
40.8453322,14.2604631,"Università degli Studi di Napoli Via Nuova Marina, 59 80133 Napoli NA Italia",Università Degli Studi di Napoli L'Orientale - Palazzo del Mediterraneo,2019-11-21T14:46:37.107Z,2019-11-21T17:03:03.900Z,2019-11-21,good
40.8312592,14.244409,"Via Chiatamone, 61/62 80121 Napoli NA Italia","University of Naples ""L'Orientale""",2019-11-22T09:34:39.862Z,2019-11-22T11:26:37.763Z,2019-11-22,meh
40.8453322,14.2604631,"Università degli Studi di Napoli Via Nuova Marina, 59 80133 Napoli NA Italia",Università Degli Studi di Napoli L'Orientale - Palazzo del Mediterraneo,2019-11-22T13:46:11.853Z,2019-11-22T15:21:01.234Z,2019-11-22,meh
40.8423793,14.2494379,"Via Armando Diaz, 20 80134 Napoli NA Italia",Caffè Bistrot Toledo,2019-11-23T18:12:25Z,2019-11-23T19:31:39.095Z,2019-11-23,good
40.8471256,14.2455528,Piazza Montesanto 80135 Napoli NA Italia,Montesanto,2019-11-24T15:08:04.436Z,2019-11-24T15:21:19.238Z,2019-11-24,good
40.8243343,14.1885876,"Viale John Fitzgerald Kennedy, 54 80125 Napoli NA Italia",Mostra d'Oltremare,2019-11-24T15:39:11Z,2019-11-24T18:01:08.649Z,2019-11-24,good
40.8208463,14.1735044,Viale Giochi del Mediterraneo 80125 Napoli NA Italia,Carrefour Market - Supermarket,2019-11-24T19:03:31.520Z,2019-11-24T19:26:39.782Z,2019-11-24,good
40.8504043,14.2324572,80129 Napoli NA Italia,Escobar Cafè,2019-11-24T21:01:51.420Z,2019-11-24T21:32:59.116Z,2019-11-24,good
40.8188755,14.1787883,"Viale John Fitzgerald Kennedy, 395 80125 Napoli NA Italia","Viale John Fitzgerald Kennedy, 395",2019-11-24T21:45:31.167Z,2019-11-25T01:27:56.943Z,2019-11-24,good
40.8485891,14.2552649,Piazza San Domenico 80134 Napoli NA Italia,Palazzo Corigliano,2019-11-28T07:39:14.353Z,2019-11-28T07:57:06.397Z,2019-11-28,good
40.8453322,14.2604631,"Università degli Studi di Napoli Via Nuova Marina, 59 80133 Napoli NA Italia",Università Degli Studi di Napoli L'Orientale - Palazzo del Mediterraneo,2019-11-28T15:29:27.284Z,2019-11-28T16:49:49.672Z,2019-11-28,good
40.8312592,14.244409,"Via Chiatamone, 61/62 80121 Napoli NA Italia","University of Naples ""L'Orientale""",2019-11-29T09:35:06.348Z,2019-11-29T11:20:14.987Z,2019-11-29,good
40.8453322,14.2604631,"Università degli Studi di Napoli Via Nuova Marina, 59 80133 Napoli NA Italia",Università Degli Studi di Napoli L'Orientale - Palazzo del Mediterraneo,2019-11-29T13:40:14.691Z,2019-11-29T15:17:47.271Z,2019-11-29,good
40.8529222,14.2723487,P.za Giuseppe Garibaldi 80142 Napoli NA Italia,Napoli Centrale,2019-11-29T16:42:32Z,2019-11-29T17:07:06Z,2019-11-29,good
40.852303,14.272037,80142 Napoli NA Italia,Piazza Garibaldi,2019-11-29T17:11:26Z,2019-11-29T17:39:55Z,2019-11-29,good
40.8400833,14.2512739,P.za Municipio 80133 Napoli NA Italia,Fountain of Neptune,2019-11-29T18:01:44.445Z,2019-11-29T18:16:34.657Z,2019-11-29,good
